$GNGGA,030616.25,3013.4430226,N,12015.5866812,E,2,06,11.1,35.439$GNGGA,030822.45,3013.4408100,N,12015.5938341,E,1,11,1.4,14.614,M,0.000,M,,*75

$GNVTG,286.08,T,,M,0.08,N,0.14,K,A*2A

$GNRMC,030822.45,A,3013.4408100,N,12015.5938341,E,0.08,286.08,180925,,,A,V*35

$GNGGA,030822.50,3013.4408077,N,12015.5938432,E,1,11,1.4,14.626,M,0.000,M,,*72

$GNVTG,286.08,T,,M,0.02,N,0.03,K,A*26

$GNRMC,030822.50,A,3013.4408077,N,12015.5938432,E,0.02,286.08,180925,,,A,V*39

$GNGGA,030822.55,3013.4408066,N,12015.5938523,E,1,11,1.4,14.630,M,0.000,M,,*71

$GNVTG,286.08,T,,M,0.02,N,0.03,K,A*26

$GNRMC,030822.55,A,3013.4408066,N,12015.5938523,E,0.02,286.08,180925,,,A,V*3D

$GNGGA,030822.60,3013.4408046,N,12015.5938588,E,1,11,1.4,14.653,M,0.000,M,,*71

$GNVTG,286.08,T,,M,0.08,N,0.15,K,A*2B

$GNRMC,030822.60,A,3013.4408046,N,12015.5938588,E,0.08,286.08,180925,,,A,V*32

$GNGGA,030822.65,3013.4408022,N,12015.5938646,E,1,11,1.4,14.647,M,0.000,M,,*72

$GNVTG,286.08,T,,M,0.12,N,0.23,K,A*25

$GNRMC,030822.65,A,3013.4408022,N,12015.5938646,E,0.12,286.08,180925,,,A,V*3F

$GNGGA,030822.70,3013.4407987,N,12015.5938725,E,1,12,1.1,14.660,M,0.000,M,,*78

$GNVTG,286.08,T,,M,0.03,N,0.05,K,A*21

$GNRMC,030822.70,A,3013.4407987,N,12015.5938725,E,0.03,286.08,180925,,,A,V*36

$GNGGA,030822.75,3013.4407972,N,12015.5938760,E,1,12,1.1,14.678,M,0.000,M,,*7F

$GNVTG,285.47,T,,M,0.03,N,0.06,K,A*2A

$GNRMC,030822.75,A,3013.4407972,N,12015.5938760,E,0.03,285.47,180925,,,A,V*30

$GNGGA,030822.80,3013.4407973,N,12015.5938806,E,1,12,1.1,14.703,M,0.000,M,,*76

$GNVTG,285.47,T,,M,0.11,N,0.20,K,A*2D

$GNRMC,030822.80,A,3013.4407973,N,12015.5938806,E,0.11,285.47,180925,,,A,V*37

$GNGGA,030822.85,3013.4407948,N,12015.5938871,E,1,12,1.1,14.715,M,0.000,M,,*7C

$GNVTG,285.47,T,,M,0.02,N,0.04,K,A*29

$GNRMC,030822.85,A,3013.4407948,N,12015.5938871,E,0.02,285.47,180925,,,A,V*38

$GNGGA,030822.90,3013.4407947,N,12015.5939008,E,1,12,1.1,14.729,M,0.000,M,,*7F

$GNVTG,285.47,T,,M,0.08,N,0.15,K,A*23

$GNRMC,030822.90,A,3013.4407947,N,12015.5939008,E,0.08,285.47,180925,,,A,V*3E

$GNGGA,030822.95,3013.4407962,N,12015.5939112,E,1,12,1.1,14.738,M,0.000,M,,*77

$GNVTG,285.47,T,,M,0.06,N,0.10,K,A*28

$GNRMC,030822.95,A,3013.4407962,N,12015.5939112,E,0.06,285.47,180925,,,A,V*38

$GNGGA,030823.00,3013.4408024,N,12015.5939345,E,1,12,1.1,14.734,M,0.000,M,,*72

$GNGSA,A,3,15,18,23,24,195,,,,,,,,2.5,1.1,2.3,1*00

$GNGSA,A,3,,,,,,,,,,,,,2.5,1.1,2.3,4*32

$GNGSA,A,3,86,80,87,71,,,,,,,,,2.5,1.1,2.3,2*3B

$GNGSA,A,3,03,13,34,,,,,,,,,,2.5,1.1,2.3,3*33

$GPGSV,3,1,11,05,00,000,22,10,00,000,22,13,00,000,32,15,50,034,40,1*63

$GPGSV,3,2,11,18,63,269,39,23,45,328,39,24,75,151,42,32,00,000,09,1*62

$GPGSV,3,3,11,195,47,165,40,199,00,000,32,200,00,000,00,,,,,1*6E

$BDGSV,1,1,01,13,00,000,21,,,,,,,,,,,,,1*45

$GLGSV,1,1,04,86,50,276,32,80,27,060,20,87,23,323,27,71,44,335,38,1*7D

$GAGSV,3,1,10,03,62,010,37,05,00,000,32,07,00,000,00,08,00,000,00,7*79

$GAGSV,3,2,10,13,28,319,35,15,00,000,26,16,00,000,00,24,00,000,00,7*77

$GAGSV,3,3,10,25,00,000,00,34,38,163,37,,,,,,,,,7*79

$GNVTG,283.80,T,,M,0.12,N,0.22,K,A*21

$GNRMC,030823.00,A,3013.4408024,N,12015.5939345,E,0.12,283.80,180925,,,A,V*39

$GNGGA,030823.05,3013.4408079,N,12015.5939583,E,1,12,1.1,14.720,M,0.000,M,,*76

$GNVTG,283.80,T,,M,0.05,N,0.09,K,A*2E

$GNRMC,030823.05,A,3013.4408079,N,12015.5939583,E,0.05,283.80,180925,,,A,V*3E

$GNGGA,030823.10,3013.4408156,N,12015.5939853,E,1,12,1.1,14.712,M,0.000,M,,*7F

$GNVTG,283.80,T,,M,0.06,N,0.12,K,A*27

$GNRMC,030823.10,A,3013.4408156,N,12015.5939853,E,0.06,283.80,180925,,,A,V*35

$GNGGA,030823.15,3013.4408214,N,12015.5940040,E,1,12,1.1,14.728,M,0.000,M,,*72

$GNVTG,283.80,T,,M,0.09,N,0.17,K,A*2D

$GNRMC,030823.15,A,3013.4408214,N,12015.5940040,E,0.09,283.80,180925,,,A,V*3E

$GNGGA,030823.20,3013.4408264,N,12015.5940243,E,1,12,1.1,14.722,M,0.000,M,,*78

$GNVTG,278.11,T,,M,0.16,N,0.30,K,A*2A

$GNRMC,030823.20,A,3013.4408264,N,12015.5940243,E,0.16,278.11,180925,,,A,V*3C

$GNGGA,030823.25,3013.4408340,N,12015.5940482,E,1,12,1.1,14.708,M,0.000,M,,*79

$GNVTG,278.11,T,,M,0.05,N,0.09,K,A*22

$GNRMC,030823.25,A,3013.4408340,N,12015.5940482,E,0.05,278.11,180925,,,A,V*37

$GNGGA,030823.30,3013.4408408,N,12015.5940733,E,1,12,1.1,14.702,M,0.000,M,,*75

$GNVTG,278.11,T,,M,0.16,N,0.29,K,A*22

$GNRMC,030823.30,A,3013.4408408,N,12015.5940733,E,0.16,278.11,180925,,,A,V*33

$GNGGA,030823.35,3013.4408460,N,12015.5940914,E,1,12,1.1,14.694,M,0.000,M,,*7B

$GNVTG,278.11,T,,M,0.02,N,0.04,K,A*28

$GNRMC,030823.35,A,3013.4408460,N,12015.5940914,E,0.02,278.11,180925,,,A,V*36

$GNGGA,030823.40,3013.4408540,N,12015.5941116,E,1,12,1.1,14.701,M,0.000,M,,*7C

$GNVTG,281.69,T,,M,0.10,N,0.19,K,A*2E

$GNRMC,030823.40,A,3013.4408540,N,12015.5941116,E,0.10,281.69,180925,,,A,V*36

$GNGGA,030823.45,3013.4408589,N,12015.5941313,E,1,12,1.1,14.696,M,0.000,M,,*74

$GNVTG,281.69,T,,M,0.10,N,0.18,K,A*2F

$GNRMC,030823.45,A,3013.4408589,N,12015.5941313,E,0.10,281.69,180925,,,A,V*31

$GNGGA,030823.50,3013.4408669,N,12015.5941536,E,1,12,1.1,14.709,M,0.000,M,,*7B

$GNVTG,281.69,T,,M,0.07,N,0.13,K,A*22

$GNRMC,030823.50,A,3013.4408669,N,12015.5941536,E,0.07,281.69,180925,,,A,V*3F

$GNGGA,030823.55,3013.4408730,N,12015.5941739,E,1,12,1.1,14.709,M,0.000,M,,*7E

$GNVTG,281.69,T,,M,0.05,N,0.09,K,A*2B

$GNRMC,030823.55,A,3013.4408730,N,12015.5941739,E,0.05,281.69,180925,,,A,V*38

$GNGGA,030823.60,3013.4408803,N,12015.5941964,E,1,12,1.1,14.695,M,0.000,M,,*75

$GNVTG,281.69,T,,M,0.04,N,0.08,K,A*2B

$GNRMC,030823.60,A,3013.4408803,N,12015.5941964,E,0.04,281.69,180925,,,A,V*36

$GNGGA,030823.65,3013.4408867,N,12015.5942164,E,1,12,1.1,14.710,M,0.000,M,,*75

$GNVTG,281.69,T,,M,0.08,N,0.15,K,A*2B

$GNRMC,030823.65,A,3013.4408867,N,12015.5942164,E,0.08,281.69,180925,,,A,V*36

$GNGGA,030823.70,3013.4408938,N,12015.5942373,E,1,12,1.1,14.719,M,0.000,M,,*77

$GNVTG,281.69,T,,M,0.03,N,0.05,K,A*21

$GNRMC,030823.70,A,3013.4408938,N,12015.5942373,E,0.03,281.69,180925,,,A,V*36

$GNGGA,030823.75,3013.4409002,N,12015.5942582,E,1,12,1.1,14.722,M,0.000,M,,*73

$GNVTG,281.69,T,,M,0.03,N,0.06,K,A*22

$GNRMC,030823.75,A,3013.4409002,N,12015.5942582,E,0.03,281.69,180925,,,A,V*3A

$GNGGA,030823.80,3013.4409072,N,12015.5942789,E,1,12,1.1,14.716,M,0.000,M,,*70

$GNVTG,281.69,T,,M,0.04,N,0.08,K,A*2B

$GNRMC,030823.80,A,3013.4409072,N,12015.5942789,E,0.04,281.69,180925,,,A,V*39

$GNGGA,030823.85,3013.4409140,N,12015.5942986,E,1,12,1.1,14.718,M,0.000,M,,*7A

$GNVTG,281.69,T,,M,0.04,N,0.07,K,A*24

$GNRMC,030823.85,A,3013.4409140,N,12015.5942986,E,0.04,281.69,180925,,,A,V*3D

$GNGGA,030823.90,3013.4409211,N,12015.5943193,E,1,12,1.1,14.728,M,0.000,M,,*77

$GNVTG,281.69,T,,M,0.09,N,0.17,K,A*28

$GNRMC,030823.90,A,3013.4409211,N,12015.5943193,E,0.09,281.69,180925,,,A,V*3E

$GNGGA,030823.95,3013.4409281,N,12015.5943423,E,1,12,1.1,14.730,M,0.000,M,,*7C

$GNVTG,281.69,T,,M,0.15,N,0.29,K,A*28

$GNRMC,030823.95,A,3013.4409281,N,12015.5943423,E,0.15,281.69,180925,,,A,V*31

$GNGGA,030824.00,3013.4409334,N,12015.5943592,E,1,12,1.1,14.731,M,0.000,M,,*72

$GNGSA,A,3,15,18,23,24,195,,,,,,,,2.5,1.1,2.3,1*00

$GNGSA,A,3,,,,,,,,,,,,,2.5,1.1,2.3,4*32

$GNGSA,A,3,86,80,87,71,,,,,,,,,2.5,1.1,2.3,2*3B

$GNGSA,A,3,03,13,34,,,,,,,,,,2.5,1.1,2.3,3*33

$GPGSV,3,1,11,05,00,000,21,10,00,000,21,13,00,000,31,15,50,034,39,1*6E

$GPGSV,3,2,11,18,63,269,38,23,45,328,39,24,75,151,42,32,00,000,03,1*69

$GPGSV,3,3,11,195,47,165,39,199,00,000,32,200,00,000,00,,,,,1*60

$BDGSV,1,1,01,13,00,000,21,,,,,,,,,,,,,1*45

$GLGSV,1,1,04,86,50,276,32,80,27,060,19,87,23,323,27,71,44,335,38,1*77

$GAGSV,3,1,10,03,62,010,37,05,00,000,31,07,00,000,00,08,00,000,00,7*7A

$GAGSV,3,2,10,13,28,319,34,15,00,000,26,16,00,000,00,24,00,000,00,7*76

$GAGSV,3,3,10,25,00,000,00,34,38,163,36,,,,,,,,,7*78

$GNVTG,281.69,T,,M,0.04,N,0.07,K,A*24

$GNRMC,030824.00,A,3013.4409334,N,12015.5943592,E,0.04,281.69,180925,,,A,V*3E

$GNGGA,030824.05,3013.4409398,N,12015.5943775,E,1,12,1.1,14.748,M,0.000,M,,*74

$GNVTG,281.69,T,,M,0.06,N,0.11,K,A*21

$GNRMC,030824.05,A,3013.4409398,N,12015.5943775,E,0.06,281.69,180925,,,A,V*34

$GNGGA,030824.10,3013.4409450,N,12015.5943969,E,1,12,1.1,14.737,M,0.000,M,,*78

$GNVTG,281.69,T,,M,0.01,N,0.01,K,A*27

$GNRMC,030824.10,A,3013.4409450,N,12015.5943969,E,0.01,281.69,180925,,,A,V*37

$GNGGA,030824.15,3013.4409505,N,12015.5944160,E,1,12,1.1,14.738,M,0.000,M,,*75

$GNVTG,281.69,T,,M,0.02,N,0.05,K,A*20

$GNRMC,030824.15,A,3013.4409505,N,12015.5944160,E,0.02,281.69,180925,,,A,V*36

$GNGGA,030824.20,3013.4409557,N,12015.5944339,E,1,12,1.1,14.741,M,0.000,M,,*74

$GNVTG,281.69,T,,M,0.02,N,0.04,K,A*21

$GNRMC,030824.20,A,3013.4409557,N,12015.5944339,E,0.02,281.69,180925,,,A,V*39

$GNGGA,030824.25,3013.4409600,N,12015.5944520,E,1,12,1.1,14.729,M,0.000,M,,*70

$GNVTG,281.69,T,,M,0.04,N,0.07,K,A*24

$GNRMC,030824.25,A,3013.4409600,N,12015.5944520,E,0.04,281.69,180925,,,A,V*35

$GNGGA,030824.30,3013.4409642,N,12015.5944695,E,1,12,1.1,14.739,M,0.000,M,,*7E

$GNVTG,281.69,T,,M,0.06,N,0.11,K,A*21

$GNRMC,030824.30,A,3013.4409642,N,12015.5944695,E,0.06,281.69,180925,,,A,V*38

$GNGGA,030824.35,3013.4409705,N,12015.5944888,E,1,12,1.1,14.740,M,0.000,M,,*75

$GNVTG,281.69,T,,M,0.05,N,0.09,K,A*2B

$GNRMC,030824.35,A,3013.4409705,N,12015.5944888,E,0.05,281.69,180925,,,A,V*3E

$GNGGA,030824.40,3013.4409735,N,12015.5945046,E,1,12,1.1,14.729,M,0.000,M,,*70

$GNVTG,281.69,T,,M,0.06,N,0.11,K,A*21

$GNRMC,030824.40,A,3013.4409735,N,12015.5945046,E,0.06,281.69,180925,,,A,V*37

$GNGGA,030824.45,3013.4409780,N,12015.5945237,E,1,12,1.1,14.726,M,0.000,M,,*70

$GNVTG,281.69,T,,M,0.03,N,0.06,K,A*22

$GNRMC,030824.45,A,3013.4409780,N,12015.5945237,E,0.03,281.69,180925,,,A,V*3D

$GNGGA,030824.50,3013.4409818,N,12015.5945384,E,1,12,1.1,14.718,M,0.000,M,,*7E

$GNVTG,276.22,T,,M,0.04,N,0.08,K,A*2C

$GNRMC,030824.50,A,3013.4409818,N,12015.5945384,E,0.04,276.22,180925,,,A,V*3E

$GNGGA,030824.55,3013.4409859,N,12015.5945583,E,1,12,1.1,14.714,M,0.000,M,,*73

$GNVTG,276.22,T,,M,0.05,N,0.10,K,A*24

$GNRMC,030824.55,A,3013.4409859,N,12015.5945583,E,0.05,276.22,180925,,,A,V*3E

$GNGGA,030824.60,3013.4409900,N,12015.5945747,E,1,12,1.1,14.721,M,0.000,M,,*74

$GNVTG,276.22,T,,M,0.05,N,0.10,K,A*24

$GNRMC,030824.60,A,3013.4409900,N,12015.5945747,E,0.05,276.22,180925,,,A,V*3F

$GNGGA,030824.65,3013.4409948,N,12015.5945921,E,1,12,1.1,14.724,M,0.000,M,,*76

$GNVTG,276.22,T,,M,0.04,N,0.07,K,A*23

$GNRMC,030824.65,A,3013.4409948,N,12015.5945921,E,0.04,276.22,180925,,,A,V*39

$GNGGA,030824.70,3013.4409994,N,12015.5946094,E,1,12,1.1,14.708,M,0.000,M,,*79

$GNVTG,276.22,T,,M,0.01,N,0.02,K,A*23

$GNRMC,030824.70,A,3013.4409994,N,12015.5946094,E,0.01,276.22,180925,,,A,V*3D

$GNGGA,030824.75,3013.4410040,N,12015.5946254,E,1,12,1.1,14.705,M,0.000,M,,*77

$GNVTG,276.22,T,,M,0.05,N,0.09,K,A*2C

$GNRMC,030824.75,A,3013.4410040,N,12015.5946254,E,0.05,276.22,180925,,,A,V*3A

$GNGGA,030824.80,3013.4410069,N,12015.5946413,E,1,12,1.1,14.706,M,0.000,M,,*70

$GNVTG,276.22,T,,M,0.06,N,0.11,K,A*26

$GNRMC,030824.80,A,3013.4410069,N,12015.5946413,E,0.06,276.22,180925,,,A,V*3D

$GNGGA,030824.85,3013.4410120,N,12015.5946567,E,1,12,1.1,14.702,M,0.000,M,,*7F

$GNVTG,276.22,T,,M,0.08,N,0.16,K,A*2F

$GNRMC,030824.85,A,3013.4410120,N,12015.5946567,E,0.08,276.22,180925,,,A,V*38

$GNGGA,030824.90,3013.4410153,N,12015.5946753,E,1,12,1.1,14.694,M,0.000,M,,*74

$GNVTG,276.22,T,,M,0.02,N,0.03,K,A*21

$GNRMC,030824.90,A,3013.4410153,N,12015.5946753,E,0.02,276.22,180925,,,A,V*37

$GNGGA,030824.95,3013.4410187,N,12015.5946886,E,1,12,1.1,14.690,M,0.000,M,,*7B

$GNVTG,276.22,T,,M,0.02,N,0.04,K,A*26

$GNRMC,030824.95,A,3013.4410187,N,12015.5946886,E,0.02,276.22,180925,,,A,V*3C

$GNGGA,030825.00,3013.4410166,N,12015.5946920,E,1,12,1.1,14.705,M,0.000,M,,*79

$GNGSA,A,3,15,18,23,24,195,,,,,,,,2.5,1.1,2.3,1*00

$GNGSA,A,3,,,,,,,,,,,,,2.5,1.1,2.3,4*32

$GNGSA,A,3,86,80,87,71,,,,,,,,,2.5,1.1,2.3,2*3B

$GNGSA,A,3,03,13,34,,,,,,,,,,2.5,1.1,2.3,3*33

$GPGSV,3,1,11,05,00,000,25,10,00,000,20,13,00,000,31,15,50,034,38,1*6A

$GPGSV,3,2,11,18,63,269,37,23,45,328,39,24,75,151,42,32,00,000,00,1*65

$GPGSV,3,3,11,195,47,165,39,199,00,000,32,200,00,000,19,,,,,1*68

$BDGSV,1,1,01,13,00,000,21,,,,,,,,,,,,,1*45

$GLGSV,2,1,05,86,50,276,32,80,27,060,20,87,23,323,28,71,44,335,38,1*70

$GLGSV,2,2,05,74,08,166,00,,,,,,,,,,,,,1*47

$GAGSV,3,1,10,03,62,010,37,05,00,000,31,07,00,000,00,08,00,000,00,7*7A

$GAGSV,3,2,10,13,28,319,32,15,00,000,26,16,00,000,00,24,00,000,00,7*70

$GAGSV,3,3,10,25,00,000,00,34,38,163,35,,,,,,,,,7*7B

$GNVTG,276.22,T,,M,0.10,N,0.19,K,A*29

$GNRMC,030825.00,A,3013.4410166,N,12015.5946920,E,0.10,276.22,180925,,,A,V*30

$GNGGA,030825.05,3013.4410144,N,12015.5946948,E,1,12,1.1,14.707,M,0.000,M,,*70

$GNVTG,276.22,T,,M,0.13,N,0.25,K,A*25

$GNRMC,030825.05,A,3013.4410144,N,12015.5946948,E,0.13,276.22,180925,,,A,V*38

$GNGGA,030825.10,3013.4410111,N,12015.5946953,E,1,12,1.1,14.724,M,0.000,M,,*7F

$GNVTG,276.22,T,,M,0.06,N,0.11,K,A*26

$GNRMC,030825.10,A,3013.4410111,N,12015.5946953,E,0.06,276.22,180925,,,A,V*32

$GNGGA,030825.15,3013.4410093,N,12015.5946978,E,1,12,1.1,14.732,M,0.000,M,,*7F

$GNVTG,276.22,T,,M,0.03,N,0.05,K,A*26

$GNRMC,030825.15,A,3013.4410093,N,12015.5946978,E,0.03,276.22,180925,,,A,V*30

$GNGGA,030825.20,3013.4410070,N,12015.5946995,E,1,12,1.1,14.740,M,0.000,M,,*72

$GNVTG,276.22,T,,M,0.04,N,0.07,K,A*23

$GNRMC,030825.20,A,3013.4410070,N,12015.5946995,E,0.04,276.22,180925,,,A,V*3F

$GNGGA,030825.25,3013.4410033,N,12015.5947020,E,1,12,1.1,14.743,M,0.000,M,,*75

$GNVTG,276.22,T,,M,0.07,N,0.13,K,A*25

$GNRMC,030825.25,A,3013.4410033,N,12015.5947020,E,0.07,276.22,180925,,,A,V*38

$GNGGA,030825.30,3013.4410021,N,12015.5947023,E,1,12,1.1,14.750,M,0.000,M,,*73

$GNVTG,276.22,T,,M,0.00,N,0.01,K,A*21

$GNRMC,030825.30,A,3013.4410021,N,12015.5947023,E,0.00,276.22,180925,,,A,V*3B

$GNGGA,030825.35,3013.4410010,N,12015.5947053,E,1,12,1.1,14.765,M,0.000,M,,*75

$GNVTG,276.22,T,,M,0.02,N,0.04,K,A*26

$GNRMC,030825.35,A,3013.4410010,N,12015.5947053,E,0.02,276.22,180925,,,A,V*39

$GNGGA,030825.40,3013.4409979,N,12015.5947049,E,1,12,1.1,14.776,M,0.000,M,,*70

$GNVTG,276.22,T,,M,0.04,N,0.08,K,A*2C

$GNRMC,030825.40,A,3013.4409979,N,12015.5947049,E,0.04,276.22,180925,,,A,V*38

$GNGGA,030825.45,3013.4409965,N,12015.5947091,E,1,12,1.1,14.781,M,0.000,M,,*75

$GNVTG,276.22,T,,M,0.02,N,0.03,K,A*21

$GNRMC,030825.45,A,3013.4409965,N,12015.5947091,E,0.02,276.22,180925,,,A,V*33

$GNGGA,030825.50,3013.4409951,N,12015.5947094,E,1,12,1.1,14.792,M,0.000,M,,*71

$GNVTG,276.22,T,,M,0.07,N,0.13,K,A*25

$GNRMC,030825.50,A,3013.4409951,N,12015.5947094,E,0.07,276.22,180925,,,A,V*30

$GNGGA,030825.55,3013.4409930,N,12015.5947104,E,1,12,1.1,14.798,M,0.000,M,,*71

$GNVTG,276.22,T,,M,0.05,N,0.10,K,A*24

$GNRMC,030825.55,A,3013.4409930,N,12015.5947104,E,0.05,276.22,180925,,,A,V*38

$GNGGA,030825.60,3013.4409907,N,12015.5947102,E,1,12,1.1,14.808,M,0.000,M,,*73

$GNVTG,276.22,T,,M,0.08,N,0.15,K,A*2C

$GNRMC,030825.60,A,3013.4409907,N,12015.5947102,E,0.08,276.22,180925,,,A,V*31

$GNGGA,030825.65,3013.4409886,N,12015.5947136,E,1,12,1.1,14.823,M,0.000,M,,*70

$GNVTG,276.22,T,,M,0.07,N,0.13,K,A*25

$GNRMC,030825.65,A,3013.4409886,N,12015.5947136,E,0.07,276.22,180925,,,A,V*34

$GNGGA,030825.70,3013.4409879,N,12015.5947150,E,1,12,1.1,14.835,M,0.000,M,,*73

$GNVTG,276.22,T,,M,0.02,N,0.05,K,A*27

$GNRMC,030825.70,A,3013.4409879,N,12015.5947150,E,0.02,276.22,180925,,,A,V*35

$GNGGA,030825.75,3013.4409888,N,12015.5947203,E,1,12,1.1,14.841,M,0.000,M,,*7E

$GNVTG,276.22,T,,M,0.20,N,0.38,K,A*29

$GNRMC,030825.75,A,3013.4409888,N,12015.5947203,E,0.20,276.22,180925,,,A,V*3B

$GNGGA,030825.80,3013.4409875,N,12015.5947188,E,1,12,1.1,14.855,M,0.000,M,,*73

$GNVTG,276.22,T,,M,0.13,N,0.24,K,A*24

$GNRMC,030825.80,A,3013.4409875,N,12015.5947188,E,0.13,276.22,180925,,,A,V*33

$GNGGA,030825.85,3013.4409863,N,12015.5947220,E,1,12,1.1,14.867,M,0.000,M,,*71

$GNVTG,276.22,T,,M,0.14,N,0.26,K,A*21

$GNRMC,030825.85,A,3013.4409863,N,12015.5947220,E,0.14,276.22,180925,,,A,V*37

$GNGGA,030825.90,3013.4409848,N,12015.5947220,E,1,12,1.1,14.887,M,0.000,M,,*72

$GNVTG,276.22,T,,M,0.03,N,0.06,K,A*25

$GNRMC,030825.90,A,3013.4409848,N,12015.5947220,E,0.03,276.22,180925,,,A,V*3C

$GNGGA,030825.95,3013.4409836,N,12015.5947222,E,1,12,1.1,14.893,M,0.000,M,,*79

$GNVTG,276.22,T,,M,0.14,N,0.27,K,A*20

$GNRMC,030825.95,A,3013.4409836,N,12015.5947222,E,0.14,276.22,180925,,,A,V*34

$GNGGA,030826.00,3013.4409818,N,12015.5947219,E,1,12,1.1,14.905,M,0.000,M,,*7C

$GNGSA,A,3,15,18,23,24,195,,,,,,,,2.5,1.1,2.3,1*00

$GNGSA,A,3,,,,,,,,,,,,,2.5,1.1,2.3,4*32

$GNGSA,A,3,86,80,87,71,,,,,,,,,2.5,1.1,2.3,2*3B

$GNGSA,A,3,03,13,34,,,,,,,,,,2.5,1.1,2.3,3*33

$GPGSV,3,1,11,05,00,000,24,10,00,000,20,13,00,000,31,15,50,034,38,1*6B

$GPGSV,3,2,11,18,63,269,37,23,45,328,38,24,75,151,42,32,00,000,23,1*65

$GPGSV,3,3,11,195,47,165,38,199,00,000,32,200,00,000,20,,,,,1*63

$BDGSV,1,1,01,13,00,000,21,,,,,,,,,,,,,1*45

$GLGSV,1,1,04,86,50,276,32,80,27,060,20,87,23,323,30,71,44,335,37,1*74

$GAGSV,3,1,09,03,62,010,37,05,00,000,30,07,00,000,00,13,28,319,32,7*79

$GAGSV,3,2,09,15,00,000,26,16,00,000,00,24,00,000,00,25,00,000,00,7*7D

$GAGSV,3,3,09,34,38,163,35,,,,,,,,,,,,,7*44

$GNVTG,271.93,T,,M,0.17,N,0.32,K,A*2A

$GNRMC,030826.00,A,3013.4409818,N,12015.5947219,E,0.17,271.93,180925,,,A,V*31

$GNGGA,030826.05,3013.4409817,N,12015.5947225,E,1,12,1.1,14.919,M,0.000,M,,*74

$GNVTG,271.93,T,,M,0.10,N,0.18,K,A*25

$GNRMC,030826.05,A,3013.4409817,N,12015.5947225,E,0.10,271.93,180925,,,A,V*33

$GNGGA,030826.10,3013.4409803,N,12015.5947248,E,1,12,1.1,14.929,M,0.000,M,,*7D

$GNVTG,271.93,T,,M,0.05,N,0.09,K,A*21

$GNRMC,030826.10,A,3013.4409803,N,12015.5947248,E,0.05,271.93,180925,,,A,V*3D

$GNGGA,030826.15,3013.4409802,N,12015.5947275,E,1,12,1.1,14.938,M,0.000,M,,*77

$GNVTG,271.93,T,,M,0.06,N,0.11,K,A*2B

$GNRMC,030826.15,A,3013.4409802,N,12015.5947275,E,0.06,271.93,180925,,,A,V*34

$GNGGA,030826.20,3013.4409785,N,12015.5947276,E,1,12,1.1,14.947,M,0.000,M,,*7A

$GNVTG,271.93,T,,M,0.06,N,0.11,K,A*2B

$GNRMC,030826.20,A,3013.4409785,N,12015.5947276,E,0.06,271.93,180925,,,A,V*31

$GNGGA,030826.25,3013.4409775,N,12015.5947277,E,1,12,1.1,14.965,M,0.000,M,,*71

$GNVTG,271.93,T,,M,0.04,N,0.07,K,A*2E

$GNRMC,030826.25,A,3013.4409775,N,12015.5947277,E,0.04,271.93,180925,,,A,V*38

$GNGGA,030826.30,3013.4409771,N,12015.5947288,E,1,12,1.1,14.986,M,0.000,M,,*7C

$GNVTG,271.93,T,,M,0.10,N,0.18,K,A*25

$GNRMC,030826.30,A,3013.4409771,N,12015.5947288,E,0.10,271.93,180925,,,A,V*3D

$GNGGA,030826.35,3013.4409767,N,12015.5947291,E,1,12,1.1,14.991,M,0.000,M,,*70

$GNVTG,271.93,T,,M,0.12,N,0.21,K,A*2D

$GNRMC,030826.35,A,3013.4409767,N,12015.5947291,E,0.12,271.93,180925,,,A,V*35

$GNGGA,030826.40,3013.4409765,N,12015.5947322,E,1,12,1.1,14.996,M,0.000,M,,*7E

$GNVTG,271.93,T,,M,0.05,N,0.09,K,A*21

$GNRMC,030826.40,A,3013.4409765,N,12015.5947322,E,0.05,271.93,180925,,,A,V*3A

$GNGGA,030826.45,3013.4409764,N,12015.5947350,E,1,12,1.1,15.007,M,0.000,M,,*7F

$GNVTG,271.93,T,,M,0.05,N,0.08,K,A*20

$GNRMC,030826.45,A,3013.4409764,N,12015.5947350,E,0.05,271.93,180925,,,A,V*3B

$GNGGA,030826.50,3013.4409758,N,12015.5947334,E,1,12,1.1,15.017,M,0.000,M,,*77

$GNVTG,271.93,T,,M,0.06,N,0.12,K,A*28

$GNRMC,030826.50,A,3013.4409758,N,12015.5947334,E,0.06,271.93,180925,,,A,V*31

$GNGGA,030826.55,3013.4409750,N,12015.5947343,E,1,12,1.1,15.039,M,0.000,M,,*76

$GNVTG,271.93,T,,M,0.08,N,0.15,K,A*21

$GNRMC,030826.55,A,3013.4409750,N,12015.5947343,E,0.08,271.93,180925,,,A,V*32

$GNGGA,030826.60,3013.4409746,N,12015.5947326,E,1,12,1.1,15.050,M,0.000,M,,*7B

$GNVTG,271.93,T,,M,0.07,N,0.12,K,A*29

$GNRMC,030826.60,A,3013.4409746,N,12015.5947326,E,0.07,271.93,180925,,,A,V*3F

$GNGGA,030826.65,3013.4409750,N,12015.5947375,E,1,12,1.1,15.063,M,0.000,M,,*7F

$GNVTG,271.93,T,,M,0.10,N,0.18,K,A*25

$GNRMC,030826.65,A,3013.4409750,N,12015.5947375,E,0.10,271.93,180925,,,A,V*3D

$GNGGA,030826.70,3013.4409741,N,12015.5947412,E,1,12,1.1,15.073,M,0.000,M,,*7C

$GNVTG,271.93,T,,M,0.18,N,0.33,K,A*24

$GNRMC,030826.70,A,3013.4409741,N,12015.5947412,E,0.18,271.93,180925,,,A,V*37

$GNGGA,030826.75,3013.4409738,N,12015.5947377,E,1,12,1.1,15.078,M,0.000,M,,*78

$GNVTG,271.93,T,,M,0.04,N,0.07,K,A*2E

$GNRMC,030826.75,A,3013.4409738,N,12015.5947377,E,0.04,271.93,180925,,,A,V*35

$GNGGA,030826.80,3013.4409742,N,12015.5947406,E,1,12,1.1,15.088,M,0.000,M,,*71

$GNVTG,271.93,T,,M,0.03,N,0.06,K,A*28

$GNRMC,030826.80,A,3013.4409742,N,12015.5947406,E,0.03,271.93,180925,,,A,V*34

$GNGGA,030826.85,3013.4409739,N,12015.5947396,E,1,12,1.1,15.103,M,0.000,M,,*74

$GNVTG,271.93,T,,M,0.10,N,0.19,K,A*24

$GNRMC,030826.85,A,3013.4409739,N,12015.5947396,E,0.10,271.93,180925,,,A,V*31

$GNGGA,030826.90,3013.4409742,N,12015.5947400,E,1,12,1.1,15.113,M,0.000,M,,*75

$GNVTG,271.93,T,,M,0.07,N,0.12,K,A*29

$GNRMC,030826.90,A,3013.4409742,N,12015.5947400,E,0.07,271.93,180925,,,A,V*37

$GNGGA,030826.95,3013.4409736,N,12015.5947424,E,1,12,1.1,15.124,M,0.000,M,,*71

$GNVTG,271.93,T,,M,0.06,N,0.12,K,A*28

$GNRMC,030826.95,A,3013.4409736,N,12015.5947424,E,0.06,271.93,180925,,,A,V*36

$GNGGA,030827.00,3013.4409720,N,12015.5947390,E,1,12,1.1,15.141,M,0.000,M,,*70

$GNGSA,A,3,15,18,23,24,195,,,,,,,,2.5,1.1,2.3,1*00

$GNGSA,A,3,,,,,,,,,,,,,2.5,1.1,2.3,4*32

$GNGSA,A,3,86,80,87,71,,,,,,,,,2.5,1.1,2.3,2*3B

$GNGSA,A,3,03,13,34,,,,,,,,,,2.5,1.1,2.3,3*33

$GPGSV,3,1,11,05,00,000,24,10,00,000,20,13,00,000,31,15,50,034,37,1*64

$GPGSV,3,2,11,18,63,269,37,23,45,328,38,24,75,151,42,32,00,000,21,1*67

$GPGSV,3,3,11,195,47,165,38,199,00,000,32,200,00,000,19,,,,,1*69

$BDGSV,1,1,01,13,00,000,21,,,,,,,,,,,,,1*45

$GLGSV,1,1,04,86,50,276,31,80,27,060,20,87,23,323,30,71,44,335,37,1*77

$GAGSV,3,1,09,03,62,010,37,05,00,000,30,07,00,000,00,08,00,000,00,7*73

$GAGSV,3,2,09,13,28,319,31,15,00,000,27,24,00,000,00,25,00,000,00,7*7A

$GAGSV,3,3,09,34,38,163,35,,,,,,,,,,,,,7*44

$GNVTG,271.93,T,,M,0.05,N,0.09,K,A*21

$GNRMC,030827.00,A,3013.4409720,N,12015.5947390,E,0.05,271.93,180925,,,A,V*37

$GNGGA,030827.05,3013.4409722,N,12015.5947377,E,1,12,1.1,15.158,M,0.000,M,,*76

$GNVTG,271.93,T,,M,0.13,N,0.24,K,A*29

$GNRMC,030827.05,A,3013.4409722,N,12015.5947377,E,0.13,271.93,180925,,,A,V*3E

$GNGGA,030827.10,3013.4409703,N,12015.5947297,E,1,12,1.1,15.180,M,0.000,M,,*7B

$GNVTG,271.93,T,,M,0.04,N,0.08,K,A*21

$GNRMC,030827.10,A,3013.4409703,N,12015.5947297,E,0.04,271.93,180925,,,A,V*30

$GNGGA,030827.15,3013.4409700,N,12015.5947273,E,1,12,1.1,15.192,M,0.000,M,,*74

$GNVTG,271.93,T,,M,0.01,N,0.02,K,A*2E

$GNRMC,030827.15,A,3013.4409700,N,12015.5947273,E,0.01,271.93,180925,,,A,V*39

$GNGGA,030827.20,3013.4409687,N,12015.5947188,E,1,12,1.1,15.205,M,0.000,M,,*76

$GNVTG,271.01,T,,M,0.16,N,0.30,K,A*22

$GNRMC,030827.20,A,3013.4409687,N,12015.5947188,E,0.16,271.01,180925,,,A,V*3B

$GNGGA,030827.25,3013.4409672,N,12015.5947171,E,1,12,1.1,15.222,M,0.000,M,,*7A

$GNVTG,271.01,T,,M,0.06,N,0.11,K,A*20

$GNRMC,030827.25,A,3013.4409672,N,12015.5947171,E,0.06,271.01,180925,,,A,V*33

$GNGGA,030827.30,3013.4409663,N,12015.5947135,E,1,12,1.1,15.248,M,0.000,M,,*72

$GNVTG,271.01,T,,M,0.05,N,0.08,K,A*2B

$GNRMC,030827.30,A,3013.4409663,N,12015.5947135,E,0.05,271.01,180925,,,A,V*34

$GNGGA,030827.35,3013.4409647,N,12015.5947089,E,1,12,1.1,15.249,M,0.000,M,,*76

$GNVTG,271.01,T,,M,0.04,N,0.08,K,A*2A

$GNRMC,030827.35,A,3013.4409647,N,12015.5947089,E,0.04,271.01,180925,,,A,V*30

$GNGGA,030827.40,3013.4409656,N,12015.5947072,E,1,12,1.1,15.269,M,0.000,M,,*72

$GNVTG,271.01,T,,M,0.16,N,0.30,K,A*22

$GNRMC,030827.40,A,3013.4409656,N,12015.5947072,E,0.16,271.01,180925,,,A,V*35

$GNGGA,030827.45,3013.4409641,N,12015.5947016,E,1,12,1.1,15.276,M,0.000,M,,*7D

$GNVTG,271.01,T,,M,0.03,N,0.06,K,A*23

$GNRMC,030827.45,A,3013.4409641,N,12015.5947016,E,0.03,271.01,180925,,,A,V*30

$GNGGA,030827.50,3013.4409628,N,12015.5946954,E,1,12,1.1,15.300,M,0.000,M,,*78

$GNVTG,271.01,T,,M,0.07,N,0.12,K,A*22

$GNRMC,030827.50,A,3013.4409628,N,12015.5946954,E,0.07,271.01,180925,,,A,V*31

$GNGGA,030827.55,3013.4409623,N,12015.5946904,E,1,12,1.1,15.315,M,0.000,M,,*77

$GNVTG,271.01,T,,M,0.03,N,0.05,K,A*20

$GNRMC,030827.55,A,3013.4409623,N,12015.5946904,E,0.03,271.01,180925,,,A,V*3E

$GNGGA,030827.60,3013.4409613,N,12015.5946860,E,1,12,1.1,15.334,M,0.000,M,,*72

$GNVTG,271.01,T,,M,0.03,N,0.06,K,A*23

$GNRMC,030827.60,A,3013.4409613,N,12015.5946860,E,0.03,271.01,180925,,,A,V*38

$GNGGA,030827.65,3013.4409606,N,12015.5946838,E,1,12,1.1,15.351,M,0.000,M,,*7D

$GNVTG,271.01,T,,M,0.12,N,0.22,K,A*25

$GNRMC,030827.65,A,3013.4409606,N,12015.5946838,E,0.12,271.01,180925,,,A,V*34

$GNGGA,030827.70,3013.4409595,N,12015.5946784,E,1,12,1.1,15.357,M,0.000,M,,*7E

$GNVTG,271.01,T,,M,0.08,N,0.15,K,A*2A

$GNRMC,030827.70,A,3013.4409595,N,12015.5946784,E,0.08,271.01,180925,,,A,V*3A

$GNGGA,030827.75,3013.4409594,N,12015.5946741,E,1,12,1.1,15.369,M,0.000,M,,*7E

$GNVTG,271.01,T,,M,0.09,N,0.16,K,A*28

$GNRMC,030827.75,A,3013.4409594,N,12015.5946741,E,0.09,271.01,180925,,,A,V*36

$GNGGA,030827.80,3013.4409574,N,12015.5946674,E,1,12,1.1,15.383,M,0.000,M,,*79

$GNVTG,271.01,T,,M,0.09,N,0.17,K,A*29

$GNRMC,030827.80,A,3013.4409574,N,12015.5946674,E,0.09,271.01,180925,,,A,V*35

$GNGGA,030827.85,3013.4409572,N,12015.5946637,E,1,12,1.1,15.402,M,0.000,M,,*73

$GNVTG,271.01,T,,M,0.02,N,0.03,K,A*27

$GNRMC,030827.85,A,3013.4409572,N,12015.5946637,E,0.02,271.01,180925,,,A,V*3A

$GNGGA,030827.90,3013.4409557,N,12015.5946564,E,1,12,1.1,15.421,M,0.000,M,,*74

$GNVTG,271.01,T,,M,0.12,N,0.23,K,A*24

$GNRMC,030827.90,A,3013.4409557,N,12015.5946564,E,0.12,271.01,180925,,,A,V*3D

$GNGGA,030827.95,3013.4409549,N,12015.5946546,E,1,12,1.1,15.438,M,0.000,M,,*76

$GNVTG,271.01,T,,M,0.07,N,0.14,K,A*24

$GNRMC,030827.95,A,3013.4409549,N,12015.5946546,E,0.07,271.01,180925,,,A,V*33

$GNGGA,030828.00,3013.4409551,N,12015.5946520,E,1,12,1.1,15.449,M,0.000,M,,*7A

$GNGSA,A,3,15,18,23,24,195,,,,,,,,2.5,1.1,2.3,1*00

$GNGSA,A,3,,,,,,,,,,,,,2.5,1.1,2.3,4*32

$GNGSA,A,3,86,80,87,71,,,,,,,,,2.5,1.1,2.3,2*3B

$GNGSA,A,3,03,13,34,,,,,,,,,,2.5,1.1,2.3,3*33

$GPGSV,3,1,11,05,00,000,25,10,00,000,20,13,00,000,31,15,50,034,37,1*65

$GPGSV,3,2,11,18,63,269,36,23,45,328,38,24,75,151,42,32,00,000,20,1*67

$GPGSV,3,3,11,195,47,165,38,199,00,000,32,200,00,000,18,,,,,1*68

$BDGSV,1,1,01,13,00,000,22,,,,,,,,,,,,,1*46

$GLGSV,1,1,04,86,50,276,32,80,27,060,21,87,23,323,29,71,44,335,37,1*7D

$GAGSV,3,1,10,03,62,010,37,05,00,000,30,07,00,000,00,08,00,000,00,7*7B

$GAGSV,3,2,10,13,28,319,31,15,00,000,27,16,00,000,00,24,00,000,00,7*72

$GAGSV,3,3,10,25,00,000,00,34,38,163,35,,,,,,,,,7*7B

$GNVTG,271.01,T,,M,0.07,N,0.12,K,A*22

$GNRMC,030828.00,A,3013.4409551,N,12015.5946520,E,0.07,271.01,180925,,,A,V*39

$GNGGA,030828.05,3013.4409559,N,12015.5946535,E,1,12,1.1,15.449,M,0.000,M,,*73

$GNVTG,271.01,T,,M,0.04,N,0.07,K,A*25

$GNRMC,030828.05,A,3013.4409559,N,12015.5946535,E,0.04,271.01,180925,,,A,V*33

$GNGGA,030828.10,3013.4409565,N,12015.5946538,E,1,12,1.1,15.458,M,0.000,M,,*75

$GNVTG,271.01,T,,M,0.10,N,0.18,K,A*2E

$GNRMC,030828.10,A,3013.4409565,N,12015.5946538,E,0.10,271.01,180925,,,A,V*30

$GNGGA,030828.15,3013.4409576,N,12015.5946540,E,1,12,1.1,15.474,M,0.000,M,,*73

$GNVTG,271.01,T,,M,0.08,N,0.16,K,A*29

$GNRMC,030828.15,A,3013.4409576,N,12015.5946540,E,0.08,271.01,180925,,,A,V*31

$GNGGA,030828.20,3013.4409585,N,12015.5946525,E,1,12,1.1,15.489,M,0.000,M,,*78

$GNVTG,271.01,T,,M,0.04,N,0.07,K,A*25

$GNRMC,030828.20,A,3013.4409585,N,12015.5946525,E,0.04,271.01,180925,,,A,V*34

$GNGGA,030828.25,3013.4409591,N,12015.5946517,E,1,12,1.1,15.513,M,0.000,M,,*7B

$GNVTG,271.01,T,,M,0.04,N,0.07,K,A*25

$GNRMC,030828.25,A,3013.4409591,N,12015.5946517,E,0.04,271.01,180925,,,A,V*35

$GNGGA,030828.30,3013.4409605,N,12015.5946516,E,1,12,1.1,15.515,M,0.000,M,,*76

$GNVTG,271.01,T,,M,0.09,N,0.16,K,A*28

$GNRMC,030828.30,A,3013.4409605,N,12015.5946516,E,0.09,271.01,180925,,,A,V*33

$GNGGA,030828.35,3013.4409604,N,12015.5946483,E,1,12,1.1,15.536,M,0.000,M,,*7E

$GNVTG,271.01,T,,M,0.09,N,0.17,K,A*29

$GNRMC,030828.35,A,3013.4409604,N,12015.5946483,E,0.09,271.01,180925,,,A,V*3A

$GNGGA,030828.40,3013.4409622,N,12015.5946485,E,1,12,1.1,15.544,M,0.000,M,,*7B

$GNVTG,271.01,T,,M,0.05,N,0.10,K,A*22

$GNRMC,030828.40,A,3013.4409622,N,12015.5946485,E,0.05,271.01,180925,,,A,V*36

$GNGGA,030828.45,3013.4409628,N,12015.5946505,E,1,12,1.1,15.559,M,0.000,M,,*71

$GNVTG,271.01,T,,M,0.07,N,0.12,K,A*22

$GNRMC,030828.45,A,3013.4409628,N,12015.5946505,E,0.07,271.01,180925,,,A,V*32

$GNGGA,030828.50,3013.4409616,N,12015.5946461,E,1,12,1.1,15.568,M,0.000,M,,*79

$GNVTG,271.01,T,,M,0.10,N,0.18,K,A*2E

$GNRMC,030828.50,A,3013.4409616,N,12015.5946461,E,0.10,271.01,180925,,,A,V*3E

$GNGGA,030828.55,3013.4409632,N,12015.5946498,E,1,12,1.1,15.573,M,0.000,M,,*76

$GNVTG,271.01,T,,M,0.05,N,0.09,K,A*2A

$GNRMC,030828.55,A,3013.4409632,N,12015.5946498,E,0.05,271.01,180925,,,A,V*3F

$GNGGA,030828.60,3013.4409647,N,12015.5946501,E,1,12,1.1,15.592,M,0.000,M,,*7C

$GNVTG,271.01,T,,M,0.12,N,0.23,K,A*24

$GNRMC,030828.60,A,3013.4409647,N,12015.5946501,E,0.12,271.01,180925,,,A,V*3C

$GNGGA,030828.65,3013.4409658,N,12015.5946490,E,1,12,1.1,15.618,M,0.000,M,,*7F

$GNVTG,271.01,T,,M,0.11,N,0.20,K,A*24

$GNRMC,030828.65,A,3013.4409658,N,12015.5946490,E,0.11,271.01,180925,,,A,V*3D

$GNGGA,030828.70,3013.4409656,N,12015.5946472,E,1,12,1.1,15.628,M,0.000,M,,*7A

$GNVTG,271.01,T,,M,0.06,N,0.11,K,A*20

$GNRMC,030828.70,A,3013.4409656,N,12015.5946472,E,0.06,271.01,180925,,,A,V*3D

$GNGGA,030828.75,3013.4409667,N,12015.5946455,E,1,12,1.1,15.630,M,0.000,M,,*71

$GNVTG,271.01,T,,M,0.05,N,0.09,K,A*2A

$GNRMC,030828.75,A,3013.4409667,N,12015.5946455,E,0.05,271.01,180925,,,A,V*3C

$GNGGA,030828.80,3013.4409681,N,12015.5946436,E,1,12,1.1,15.654,M,0.000,M,,*74

$GNVTG,271.01,T,,M,0.03,N,0.06,K,A*23

$GNRMC,030828.80,A,3013.4409681,N,12015.5946436,E,0.03,271.01,180925,,,A,V*3D

$GNGGA,030828.85,3013.4409686,N,12015.5946434,E,1,12,1.1,15.660,M,0.000,M,,*73

$GNVTG,271.01,T,,M,0.10,N,0.19,K,A*2F

$GNRMC,030828.85,A,3013.4409686,N,12015.5946434,E,0.10,271.01,180925,,,A,V*3F

$GNGGA,030828.90,3013.4409698,N,12015.5946422,E,1,12,1.1,15.678,M,0.000,M,,*76

$GNVTG,271.01,T,,M,0.05,N,0.09,K,A*2A

$GNRMC,030828.90,A,3013.4409698,N,12015.5946422,E,0.05,271.01,180925,,,A,V*37

$GNGGA,030828.95,3013.4409716,N,12015.5946427,E,1,12,1.1,15.689,M,0.000,M,,*7F

$GNVTG,271.01,T,,M,0.06,N,0.12,K,A*23

$GNRMC,030828.95,A,3013.4409716,N,12015.5946427,E,0.06,271.01,180925,,,A,V*33

$GNGGA,030829.00,3013.4409729,N,12015.5946379,E,1,12,1.1,15.704,M,0.000,M,,*76

$GNGSA,A,3,15,18,23,24,195,,,,,,,,2.5,1.1,2.3,1*00

$GNGSA,A,3,,,,,,,,,,,,,2.5,1.1,2.3,4*32

$GNGSA,A,3,86,80,87,71,,,,,,,,,2.5,1.1,2.3,2*3B

$GNGSA,A,3,03,13,34,,,,,,,,,,2.5,1.1,2.3,3*33

$GPGSV,3,1,10,05,00,000,25,10,00,000,20,13,00,000,31,15,50,034,37,1*64

$GPGSV,3,2,10,18,63,269,36,23,45,328,38,24,75,151,42,32,00,000,19,1*6C

$GPGSV,3,3,10,195,47,165,38,199,00,000,32,,,,,,,,,1*62

$BDGSV,1,1,01,13,00,000,22,,,,,,,,,,,,,1*46

$GLGSV,1,1,04,86,50,276,32,80,27,060,21,87,23,323,29,71,44,335,37,1*7D

$GAGSV,3,1,10,03,62,010,37,05,00,000,30,07,00,000,00,08,00,000,00,7*7B

$GAGSV,3,2,10,13,28,319,31,15,00,000,28,16,00,000,00,24,00,000,00,7*7D

$GAGSV,3,3,10,25,00,000,00,34,38,163,34,,,,,,,,,7*7A

$GNVTG,271.01,T,,M,0.08,N,0.15,K,A*2A

$GNRMC,030829.00,A,3013.4409729,N,12015.5946379,E,0.08,271.01,180925,,,A,V*30

$GNGGA,030829.05,3013.4409724,N,12015.5946363,E,1,12,1.1,15.721,M,0.000,M,,*72

$GNVTG,271.01,T,,M,0.12,N,0.22,K,A*25

$GNRMC,030829.05,A,3013.4409724,N,12015.5946363,E,0.12,271.01,180925,,,A,V*38

$GNGGA,030829.10,3013.4409728,N,12015.5946290,E,1,12,1.1,15.737,M,0.000,M,,*70

$GNVTG,271.01,T,,M,0.02,N,0.04,K,A*20

$GNRMC,030829.10,A,3013.4409728,N,12015.5946290,E,0.02,271.01,180925,,,A,V*3C

$GNGGA,030829.15,3013.4409716,N,12015.5946241,E,1,12,1.1,15.756,M,0.000,M,,*73

$GNVTG,271.01,T,,M,0.12,N,0.22,K,A*25

$GNRMC,030829.15,A,3013.4409716,N,12015.5946241,E,0.12,271.01,180925,,,A,V*39

$GNGGA,030829.20,3013.4409736,N,12015.5946236,E,1,12,1.1,15.769,M,0.000,M,,*7B

$GNVTG,271.01,T,,M,0.04,N,0.08,K,A*2A

$GNRMC,030829.20,A,3013.4409736,N,12015.5946236,E,0.04,271.01,180925,,,A,V*3A

$GNGGA,030829.25,3013.4409736,N,12015.5946185,E,1,12,1.1,15.788,M,0.000,M,,*7A

$GNVTG,271.01,T,,M,0.02,N,0.05,K,A*21

$GNRMC,030829.25,A,3013.4409736,N,12015.5946185,E,0.02,271.01,180925,,,A,V*32

$GNGGA,030829.30,3013.4409730,N,12015.5946120,E,1,12,1.1,15.804,M,0.000,M,,*7C

$GNVTG,271.01,T,,M,0.04,N,0.06,K,A*24

$GNRMC,030829.30,A,3013.4409730,N,12015.5946120,E,0.04,271.01,180925,,,A,V*39

$GNGGA,030829.35,3013.4409743,N,12015.5946086,E,1,12,1.1,15.815,M,0.000,M,,*70

$GNVTG,271.01,T,,M,0.03,N,0.06,K,A*23

$GNRMC,030829.35,A,3013.4409743,N,12015.5946086,E,0.03,271.01,180925,,,A,V*32

$GNGGA,030829.40,3013.4409751,N,12015.5946046,E,1,12,1.1,15.826,M,0.000,M,,*7D

$GNVTG,271.01,T,,M,0.13,N,0.25,K,A*23

$GNRMC,030829.40,A,3013.4409751,N,12015.5946046,E,0.13,271.01,180925,,,A,V*3E

$GNGGA,030829.45,3013.4409762,N,12015.5946057,E,1,12,1.1,15.848,M,0.000,M,,*70

$GNVTG,271.01,T,,M,0.26,N,0.48,K,A*2E

$GNRMC,030829.45,A,3013.4409762,N,12015.5946057,E,0.26,271.01,180925,,,A,V*3D

$GNGGA,030829.50,3013.4409754,N,12015.5945983,E,1,12,1.1,15.867,M,0.000,M,,*7F

$GNVTG,271.01,T,,M,0.03,N,0.06,K,A*23

$GNRMC,030829.50,A,3013.4409754,N,12015.5945983,E,0.03,271.01,180925,,,A,V*38

$GNGGA,030829.55,3013.4409767,N,12015.5945956,E,1,12,1.1,15.879,M,0.000,M,,*7D

$GNVTG,271.01,T,,M,0.01,N,0.01,K,A*26

$GNRMC,030829.55,A,3013.4409767,N,12015.5945956,E,0.01,271.01,180925,,,A,V*37

$GNGGA,030829.60,3013.4409773,N,12015.5945914,E,1,12,1.1,15.892,M,0.000,M,,*7D

$GNVTG,271.01,T,,M,0.03,N,0.05,K,A*20

$GNRMC,030829.60,A,3013.4409773,N,12015.5945914,E,0.03,271.01,180925,,,A,V*30

$GNGGA,030829.65,3013.4409774,N,12015.5945858,E,1,12,1.1,15.913,M,0.000,M,,*7E

$GNVTG,271.01,T,,M,0.01,N,0.01,K,A*26

$GNRMC,030829.65,A,3013.4409774,N,12015.5945858,E,0.01,271.01,180925,,,A,V*39

$GNGGA,030829.70,3013.4409786,N,12015.5945817,E,1,12,1.1,15.932,M,0.000,M,,*7F

$GNVTG,271.01,T,,M,0.04,N,0.07,K,A*25

$GNRMC,030829.70,A,3013.4409786,N,12015.5945817,E,0.04,271.01,180925,,,A,V*3E

$GNGGA,030829.75,3013.4409786,N,12015.5945755,E,1,12,1.1,15.946,M,0.000,M,,*70

$GNVTG,271.01,T,,M,0.12,N,0.23,K,A*24

$GNRMC,030829.75,A,3013.4409786,N,12015.5945755,E,0.12,271.01,180925,,,A,V*35

$GNGGA,030829.80,3013.4409803,N,12015.5945732,E,1,12,1.1,15.955,M,0.000,M,,*7B

$GNVTG,271.01,T,,M,0.03,N,0.06,K,A*23

$GNRMC,030829.80,A,3013.4409803,N,12015.5945732,E,0.03,271.01,180925,,,A,V*3C

$GNGGA,030829.85,3013.4409805,N,12015.5945662,E,1,12,1.1,15.973,M,0.000,M,,*78

$GNVTG,271.01,T,,M,0.06,N,0.12,K,A*23

$GNRMC,030829.85,A,3013.4409805,N,12015.5945662,E,0.06,271.01,180925,,,A,V*3E

$GNGGA,030829.90,3013.4409815,N,12015.5945666,E,1,12,1.1,15.983,M,0.000,M,,*76

$GNVTG,271.01,T,,M,0.02,N,0.03,K,A*27

$GNRMC,030829.90,A,3013.4409815,N,12015.5945666,E,0.02,271.01,180925,,,A,V*3B

$GNGGA,030829.95,3013.4409805,N,12015.5945588,E,1,12,1.1,16.001,M,0.000,M,,*71

$GNVTG,251.59,T,,M,0.14,N,0.25,K,A*2B

$GNRMC,030829.95,A,3013.4409805,N,12015.5945588,E,0.14,251.59,180925,,,A,V*34

$GNGGA,030830.00,3013.4409873,N,12015.5945652,E,1,12,1.1,16.010,M,0.000,M,,*70

$GNGSA,A,3,15,18,23,24,195,,,,,,,,2.5,1.1,2.3,1*00

$GNGSA,A,3,,,,,,,,,,,,,2.5,1.1,2.3,4*32

$GNGSA,A,3,86,80,87,71,,,,,,,,,2.5,1.1,2.3,2*3B

$GNGSA,A,3,03,13,34,,,,,,,,,,2.5,1.1,2.3,3*33

$GPGSV,3,1,11,05,00,000,25,10,00,000,21,13,00,000,32,15,50,034,37,1*67

$GPGSV,3,2,11,18,63,269,36,23,45,328,38,24,75,151,42,32,00,000,19,1*6D

$GPGSV,3,3,11,195,47,165,38,199,00,000,32,200,00,000,00,,,,,1*61

$BDGSV,1,1,01,13,00,000,22,,,,,,,,,,,,,1*46

$GLGSV,1,1,04,86,50,276,32,80,27,060,22,87,23,323,26,71,44,335,37,1*71

$GAGSV,3,1,10,03,62,010,37,05,00,000,30,07,00,000,00,08,00,000,00,7*7B

$GAGSV,3,2,10,13,28,319,31,15,00,000,28,16,00,000,00,24,00,000,00,7*7D

$GAGSV,3,3,10,25,00,000,00,34,38,163,34,,,,,,,,,7*7A

$GNVTG,251.59,T,,M,0.08,N,0.15,K,A*25

$GNRMC,030830.00,A,3013.4409873,N,12015.5945652,E,0.08,251.59,180925,,,A,V*38

$GNGGA,030830.05,3013.4409899,N,12015.5945675,E,1,12,1.1,16.018,M,0.000,M,,*7C

$GNVTG,251.59,T,,M,0.07,N,0.12,K,A*2D

$GNRMC,030830.05,A,3013.4409899,N,12015.5945675,E,0.07,251.59,180925,,,A,V*33

$GNGGA,030830.10,3013.4409968,N,12015.5945739,E,1,12,1.1,16.014,M,0.000,M,,*72

$GNVTG,251.59,T,,M,0.08,N,0.15,K,A*25

$GNRMC,030830.10,A,3013.4409968,N,12015.5945739,E,0.08,251.59,180925,,,A,V*3E

$GNGGA,030830.15,3013.4410010,N,12015.5945770,E,1,12,1.1,16.019,M,0.000,M,,*79

$GNVTG,251.59,T,,M,0.07,N,0.13,K,A*2C

$GNRMC,030830.15,A,3013.4410010,N,12015.5945770,E,0.07,251.59,180925,,,A,V*37

$GNGGA,030830.20,3013.4410045,N,12015.5945805,E,1,12,1.1,16.025,M,0.000,M,,*7D

$GNVTG,251.59,T,,M,0.02,N,0.04,K,A*2F

$GNRMC,030830.20,A,3013.4410045,N,12015.5945805,E,0.02,251.59,180925,,,A,V*39

$GNGGA,030830.25,3013.4410085,N,12015.5945840,E,1,12,1.1,16.025,M,0.000,M,,*75

$GNVTG,251.59,T,,M,0.07,N,0.13,K,A*2C

$GNRMC,030830.25,A,3013.4410085,N,12015.5945840,E,0.07,251.59,180925,,,A,V*34

$GNGGA,030830.30,3013.4410123,N,12015.5945883,E,1,12,1.1,16.033,M,0.000,M,,*74

$GNVTG,251.59,T,,M,0.07,N,0.12,K,A*2D

$GNRMC,030830.30,A,3013.4410123,N,12015.5945883,E,0.07,251.59,180925,,,A,V*32

$GNGGA,030830.35,3013.4410177,N,12015.5945919,E,1,12,1.1,16.043,M,0.000,M,,*75

$GNVTG,251.59,T,,M,0.04,N,0.07,K,A*2A

$GNRMC,030830.35,A,3013.4410177,N,12015.5945919,E,0.04,251.59,180925,,,A,V*37

$GNGGA,030830.40,3013.4410216,N,12015.5945924,E,1,12,1.1,16.053,M,0.000,M,,*7C

$GNVTG,251.59,T,,M,0.08,N,0.14,K,A*24

$GNRMC,030830.40,A,3013.4410216,N,12015.5945924,E,0.08,251.59,180925,,,A,V*33

$GNGGA,030830.45,3013.4410267,N,12015.5945958,E,1,12,1.1,16.054,M,0.000,M,,*73

$GNVTG,251.59,T,,M,0.09,N,0.17,K,A*26

$GNRMC,030830.45,A,3013.4410267,N,12015.5945958,E,0.09,251.59,180925,,,A,V*3A

$GNGGA,030830.50,3013.4410314,N,12015.5945984,E,1,12,1.1,16.051,M,0.000,M,,*76

$GNVTG,253.61,T,,M,0.14,N,0.26,K,A*21

$GNRMC,030830.50,A,3013.4410314,N,12015.5945984,E,0.14,253.61,180925,,,A,V*3F

$GNGGA,030830.55,3013.4410359,N,12015.5946048,E,1,12,1.1,16.061,M,0.000,M,,*73

$GNVTG,253.61,T,,M,0.05,N,0.10,K,A*24

$GNRMC,030830.55,A,3013.4410359,N,12015.5946048,E,0.05,253.61,180925,,,A,V*39

$GNGGA,030830.60,3013.4410392,N,12015.5946077,E,1,12,1.1,16.059,M,0.000,M,,*75

$GNVTG,253.61,T,,M,0.10,N,0.18,K,A*28

$GNRMC,030830.60,A,3013.4410392,N,12015.5946077,E,0.10,253.61,180925,,,A,V*30

$GNGGA,030830.65,3013.4410441,N,12015.5946100,E,1,12,1.1,16.066,M,0.000,M,,*74

$GNVTG,253.61,T,,M,0.05,N,0.09,K,A*2C

$GNRMC,030830.65,A,3013.4410441,N,12015.5946100,E,0.05,253.61,180925,,,A,V*39

$GNGGA,030830.70,3013.4410492,N,12015.5946136,E,1,12,1.1,16.075,M,0.000,M,,*79

$GNVTG,253.61,T,,M,0.04,N,0.08,K,A*2C

$GNRMC,030830.70,A,3013.4410492,N,12015.5946136,E,0.04,253.61,180925,,,A,V*37

$GNGGA,030830.75,3013.4410544,N,12015.5946159,E,1,12,1.1,16.077,M,0.000,M,,*7D

$GNVTG,253.61,T,,M,0.09,N,0.17,K,A*2F

$GNRMC,030830.75,A,3013.4410544,N,12015.5946159,E,0.09,253.61,180925,,,A,V*3C

$GNGGA,030830.80,3013.4410584,N,12015.5946186,E,1,12,1.1,16.090,M,0.000,M,,*70

$GNVTG,253.61,T,,M,0.04,N,0.07,K,A*23

$GNRMC,030830.80,A,3013.4410584,N,12015.5946186,E,0.04,253.61,180925,,,A,V*35

$GNGGA,030830.85,3013.4410631,N,12015.5946258,E,1,12,1.1,16.086,M,0.000,M,,*7F

$GNVTG,253.61,T,,M,0.15,N,0.29,K,A*2F

$GNRMC,030830.85,A,3013.4410631,N,12015.5946258,E,0.15,253.61,180925,,,A,V*3D

$GNGGA,030830.90,3013.4410668,N,12015.5946283,E,1,12,1.1,16.080,M,0.000,M,,*77

$GNVTG,253.61,T,,M,0.03,N,0.05,K,A*26

$GNRMC,030830.90,A,3013.4410668,N,12015.5946283,E,0.03,253.61,180925,,,A,V*34

$GNGGA,030830.95,3013.4410707,N,12015.5946305,E,1,12,1.1,16.087,M,0.000,M,,*72

$GNVTG,253.61,T,,M,0.11,N,0.21,K,A*23

$GNRMC,030830.95,A,3013.4410707,N,12015.5946305,E,0.11,253.61,180925,,,A,V*35

$GNGGA,030831.00,3013.4410772,N,12015.5946386,E,1,12,1.1,16.091,M,0.000,M,,*71

$GNGSA,A,3,15,18,23,24,195,,,,,,,,2.5,1.1,2.3,1*00

$GNGSA,A,3,,,,,,,,,,,,,2.5,1.1,2.3,4*32

$GNGSA,A,3,86,80,87,71,,,,,,,,,2.5,1.1,2.3,2*3B

$GNGSA,A,3,03,13,34,,,,,,,,,,2.5,1.1,2.3,3*33

$GPGSV,3,1,11,05,00,000,25,10,00,000,21,13,00,000,32,15,50,034,37,1*67

$GPGSV,3,2,11,18,63,269,36,23,45,328,37,24,75,151,43,32,00,000,18,1*62

$GPGSV,3,3,11,195,47,165,38,199,00,000,32,200,00,000,00,,,,,1*61

$BDGSV,1,1,01,13,00,000,22,,,,,,,,,,,,,1*46

$GLGSV,2,1,06,86,50,276,32,80,27,060,21,87,23,323,23,71,44,335,37,1*76

$GLGSV,2,2,06,72,16,285,00,73,33,125,00,,,,,,,,,1*71

$GAGSV,3,1,10,03,62,010,37,05,00,000,30,07,00,000,00,08,00,000,00,7*7B

$GAGSV,3,2,10,13,28,319,31,15,00,000,28,16,00,000,00,24,00,000,00,7*7D

$GAGSV,3,3,10,25,00,000,00,34,38,163,34,,,,,,,,,7*7A

$GNVTG,253.61,T,,M,0.04,N,0.07,K,A*23

$GNRMC,030831.00,A,3013.4410772,N,12015.5946386,E,0.04,253.61,180925,,,A,V*35

$GNGGA,030831.05,3013.4410828,N,12015.5946490,E,1,12,1.1,16.091,M,0.000,M,,*74

$GNVTG,253.61,T,,M,0.07,N,0.14,K,A*22

$GNRMC,030831.05,A,3013.4410828,N,12015.5946490,E,0.07,253.61,180925,,,A,V*33

$GNGGA,030831.10,3013.4410871,N,12015.5946529,E,1,12,1.1,16.098,M,0.000,M,,*76

$GNVTG,253.61,T,,M,0.12,N,0.21,K,A*20

$GNRMC,030831.10,A,3013.4410871,N,12015.5946529,E,0.12,253.61,180925,,,A,V*3C

$GNGGA,030831.15,3013.4410923,N,12015.5946607,E,1,12,1.1,16.079,M,0.000,M,,*75

$GNVTG,253.61,T,,M,0.03,N,0.06,K,A*25

$GNRMC,030831.15,A,3013.4410923,N,12015.5946607,E,0.03,253.61,180925,,,A,V*30

$GNGGA,030831.20,3013.4410988,N,12015.5946666,E,1,12,1.1,16.088,M,0.000,M,,*7B

$GNVTG,253.61,T,,M,0.06,N,0.11,K,A*26

$GNRMC,030831.20,A,3013.4410988,N,12015.5946666,E,0.06,253.61,180925,,,A,V*35

$GNGGA,030831.25,3013.4411049,N,12015.5946753,E,1,12,1.1,16.089,M,0.000,M,,*7D

$GNVTG,253.61,T,,M,0.12,N,0.22,K,A*23

$GNRMC,030831.25,A,3013.4411049,N,12015.5946753,E,0.12,253.61,180925,,,A,V*37

$GNGGA,030831.30,3013.4411094,N,12015.5946825,E,1,12,1.1,16.085,M,0.000,M,,*7B

$GNVTG,253.61,T,,M,0.06,N,0.11,K,A*26

$GNRMC,030831.30,A,3013.4411094,N,12015.5946825,E,0.06,253.61,180925,,,A,V*38

$GNGGA,030831.35,3013.4411146,N,12015.5946879,E,1,12,1.1,16.093,M,0.000,M,,*7E

$GNVTG,253.61,T,,M,0.03,N,0.06,K,A*25

$GNRMC,030831.35,A,3013.4411146,N,12015.5946879,E,0.03,253.61,180925,,,A,V*3F

$GNGGA,030831.40,3013.4411199,N,12015.5946943,E,1,12,1.1,16.093,M,0.000,M,,*76

$GNVTG,253.61,T,,M,0.02,N,0.05,K,A*27

$GNRMC,030831.40,A,3013.4411199,N,12015.5946943,E,0.02,253.61,180925,,,A,V*36

$GNGGA,030831.45,3013.4411259,N,12015.5947021,E,1,12,1.1,16.094,M,0.000,M,,*77

$GNVTG,253.61,T,,M,0.04,N,0.07,K,A*23

$GNRMC,030831.45,A,3013.4411259,N,12015.5947021,E,0.04,253.61,180925,,,A,V*36

$GNGGA,030831.50,3013.4411314,N,12015.5947080,E,1,12,1.1,16.090,M,0.000,M,,*74

$GNVTG,253.61,T,,M,0.03,N,0.06,K,A*25

$GNRMC,030831.50,A,3013.4411314,N,12015.5947080,E,0.03,253.61,180925,,,A,V*36

$GNGGA,030831.55,3013.4411367,N,12015.5947154,E,1,12,1.1,16.096,M,0.000,M,,*7B

$GNVTG,253.61,T,,M,0.04,N,0.07,K,A*23

$GNRMC,030831.55,A,3013.4411367,N,12015.5947154,E,0.04,253.61,180925,,,A,V*38

$GNGGA,030831.60,3013.4411423,N,12015.5947241,E,1,12,1.1,16.089,M,0.000,M,,*73

$GNVTG,253.61,T,,M,0.07,N,0.13,K,A*25

$GNRMC,030831.60,A,3013.4411423,N,12015.5947241,E,0.07,253.61,180925,,,A,V*3D

$GNGGA,030831.65,3013.4411473,N,12015.5947312,E,1,12,1.1,16.089,M,0.000,M,,*74

$GNVTG,253.61,T,,M,0.02,N,0.04,K,A*26

$GNRMC,030831.65,A,3013.4411473,N,12015.5947312,E,0.02,253.61,180925,,,A,V*3F

$GNGGA,030831.70,3013.4411508,N,12015.5947368,E,1,12,1.1,16.087,M,0.000,M,,*7E

$GNVTG,253.61,T,,M,0.08,N,0.15,K,A*2C

$GNRMC,030831.70,A,3013.4411508,N,12015.5947368,E,0.08,253.61,180925,,,A,V*31

$GNGGA,030831.75,3013.4411566,N,12015.5947441,E,1,12,1.1,16.090,M,0.000,M,,*79

$GNVTG,253.61,T,,M,0.01,N,0.02,K,A*23

$GNRMC,030831.75,A,3013.4411566,N,12015.5947441,E,0.01,253.61,180925,,,A,V*39

$GNGGA,030831.80,3013.4411621,N,12015.5947519,E,1,12,1.1,16.086,M,0.000,M,,*78

$GNVTG,253.61,T,,M,0.03,N,0.06,K,A*25

$GNRMC,030831.80,A,3013.4411621,N,12015.5947519,E,0.03,253.61,180925,,,A,V*3D

$GNGGA,030831.85,3013.4411670,N,12015.5947587,E,1,12,1.1,16.090,M,0.000,M,,*79

$GNVTG,253.61,T,,M,0.06,N,0.11,K,A*26

$GNRMC,030831.85,A,3013.4411670,N,12015.5947587,E,0.06,253.61,180925,,,A,V*3E

$GNGGA,030831.90,3013.4411718,N,12015.5947654,E,1,12,1.1,16.088,M,0.000,M,,*76

$GNVTG,253.61,T,,M,0.02,N,0.04,K,A*26

$GNRMC,030831.90,A,3013.4411718,N,12015.5947654,E,0.02,253.61,180925,,,A,V*3C

$GNGGA,030831.95,3013.4411771,N,12015.5947690,E,1,12,1.1,16.092,M,0.000,M,,*7F

$GNVTG,253.61,T,,M,0.11,N,0.20,K,A*22

$GNRMC,030831.95,A,3013.4411771,N,12015.5947690,E,0.11,253.61,180925,,,A,V*3C

$GNGGA,030832.00,3013.4411790,N,12015.5947693,E,1,12,1.1,16.112,M,0.000,M,,*75

$GNGSA,A,3,15,18,23,24,195,,,,,,,,2.5,1.1,2.3,1*00

$GNGSA,A,3,,,,,,,,,,,,,2.5,1.1,2.3,4*32

$GNGSA,A,3,86,80,87,71,,,,,,,,,2.5,1.1,2.3,2*3B

$GNGSA,A,3,03,13,34,,,,,,,,,,2.5,1.1,2.3,3*33

$GPGSV,3,1,11,05,00,000,25,10,00,000,20,13,00,000,31,15,50,034,36,1*64

$GPGSV,3,2,11,18,63,269,36,23,45,328,37,24,75,151,43,32,00,000,18,1*62

$GPGSV,3,3,11,195,47,165,37,199,00,000,32,200,00,000,00,,,,,1*6E

$BDGSV,1,1,01,13,00,000,22,,,,,,,,,,,,,1*46

$GLGSV,1,1,04,86,50,276,32,80,27,060,21,87,23,323,17,71,44,335,36,1*71

$GAGSV,2,1,07,03,62,010,37,05,00,000,29,08,00,000,00,13,28,319,31,7*72

$GAGSV,2,2,07,15,00,000,29,16,00,000,00,34,38,163,34,,,,,7*43

$GNVTG,253.61,T,,M,0.11,N,0.20,K,A*22

$GNRMC,030832.00,A,3013.4411790,N,12015.5947693,E,0.11,253.61,180925,,,A,V*3F

$GNGGA,030832.05,3013.4411806,N,12015.5947734,E,1,12,1.1,16.121,M,0.000,M,,*7C

$GNVTG,253.61,T,,M,0.09,N,0.17,K,A*2F

$GNRMC,030832.05,A,3013.4411806,N,12015.5947734,E,0.09,253.61,180925,,,A,V*3F

$GNGGA,030832.10,3013.4411810,N,12015.5947746,E,1,12,1.1,16.134,M,0.000,M,,*7E

$GNVTG,253.61,T,,M,0.09,N,0.16,K,A*2E

$GNRMC,030832.10,A,3013.4411810,N,12015.5947746,E,0.09,253.61,180925,,,A,V*39

$GNGGA,030832.15,3013.4411822,N,12015.5947771,E,1,12,1.1,16.133,M,0.000,M,,*79

$GNVTG,253.61,T,,M,0.15,N,0.27,K,A*21

$GNRMC,030832.15,A,3013.4411822,N,12015.5947771,E,0.15,253.61,180925,,,A,V*34

$GNGGA,030832.20,3013.4411842,N,12015.5947792,E,1,12,1.1,16.160,M,0.000,M,,*72

$GNVTG,253.61,T,,M,0.19,N,0.35,K,A*2E

$GNRMC,030832.20,A,3013.4411842,N,12015.5947792,E,0.19,253.61,180925,,,A,V*35

$GNGGA,030832.25,3013.4411845,N,12015.5947764,E,1,12,1.1,16.168,M,0.000,M,,*71

$GNVTG,253.61,T,,M,0.05,N,0.10,K,A*24

$GNRMC,030832.25,A,3013.4411845,N,12015.5947764,E,0.05,253.61,180925,,,A,V*33

$GNGGA,030832.30,3013.4411837,N,12015.5947769,E,1,12,1.1,16.185,M,0.000,M,,*7E

$GNVTG,252.45,T,,M,0.20,N,0.38,K,A*2E

$GNRMC,030832.30,A,3013.4411837,N,12015.5947769,E,0.20,252.45,180925,,,A,V*3F

$GNGGA,030832.35,3013.4411841,N,12015.5947747,E,1,12,1.1,16.188,M,0.000,M,,*7B

$GNVTG,255.50,T,,M,0.22,N,0.40,K,A*20

$GNRMC,030832.35,A,3013.4411841,N,12015.5947747,E,0.22,255.50,180925,,,A,V*36

$GNGGA,030832.40,3013.4411870,N,12015.5947779,E,1,12,1.1,16.204,M,0.000,M,,*71

$GNVTG,255.50,T,,M,0.08,N,0.15,K,A*28

$GNRMC,030832.40,A,3013.4411870,N,12015.5947779,E,0.08,255.50,180925,,,A,V*33

$GNGGA,030832.45,3013.4411883,N,12015.5947801,E,1,12,1.1,16.226,M,0.000,M,,*78

$GNVTG,255.50,T,,M,0.05,N,0.10,K,A*20

$GNRMC,030832.45,A,3013.4411883,N,12015.5947801,E,0.05,255.50,180925,,,A,V*37

$GNGGA,030832.50,3013.4411892,N,12015.5947798,E,1,12,1.1,16.231,M,0.000,M,,*75

$GNVTG,255.50,T,,M,0.05,N,0.09,K,A*28

$GNRMC,030832.50,A,3013.4411892,N,12015.5947798,E,0.05,255.50,180925,,,A,V*3C

$GNGGA,030832.55,3013.4411903,N,12015.5947828,E,1,12,1.1,16.242,M,0.000,M,,*79

$GNVTG,255.50,T,,M,0.03,N,0.05,K,A*22

$GNRMC,030832.55,A,3013.4411903,N,12015.5947828,E,0.03,255.50,180925,,,A,V*32

$GNGGA,030832.60,3013.4411919,N,12015.5947832,E,1,12,1.1,16.251,M,0.000,M,,*7D

$GNVTG,255.50,T,,M,0.06,N,0.10,K,A*23

$GNRMC,030832.60,A,3013.4411919,N,12015.5947832,E,0.06,255.50,180925,,,A,V*31

$GNGGA,030832.65,3013.4411938,N,12015.5947841,E,1,12,1.1,16.271,M,0.000,M,,*7D

$GNVTG,255.50,T,,M,0.05,N,0.10,K,A*20

$GNRMC,030832.65,A,3013.4411938,N,12015.5947841,E,0.05,255.50,180925,,,A,V*30

$GNGGA,030832.70,3013.4411952,N,12015.5947908,E,1,12,1.1,16.275,M,0.000,M,,*7D

$GNVTG,255.50,T,,M,0.03,N,0.05,K,A*22

$GNRMC,030832.70,A,3013.4411952,N,12015.5947908,E,0.03,255.50,180925,,,A,V*32

$GNGGA,030832.75,3013.4411959,N,12015.5947902,E,1,12,1.1,16.299,M,0.000,M,,*7B

$GNVTG,255.50,T,,M,0.11,N,0.20,K,A*26

$GNRMC,030832.75,A,3013.4411959,N,12015.5947902,E,0.11,255.50,180925,,,A,V*35

$GNGGA,030832.80,3013.4411986,N,12015.5947925,E,1,12,1.1,16.313,M,0.000,M,,*75

$GNVTG,255.50,T,,M,0.03,N,0.05,K,A*22

$GNRMC,030832.80,A,3013.4411986,N,12015.5947925,E,0.03,255.50,180925,,,A,V*3B

$GNGGA,030832.85,3013.4411993,N,12015.5947940,E,1,12,1.1,16.310,M,0.000,M,,*74

$GNVTG,255.50,T,,M,0.02,N,0.03,K,A*25

$GNRMC,030832.85,A,3013.4411993,N,12015.5947940,E,0.02,255.50,180925,,,A,V*38

$GNGGA,030832.90,3013.4412008,N,12015.5947959,E,1,12,1.1,16.331,M,0.000,M,,*73

$GNVTG,255.50,T,,M,0.06,N,0.12,K,A*21

$GNRMC,030832.90,A,3013.4412008,N,12015.5947959,E,0.06,255.50,180925,,,A,V*38

$GNGGA,030832.95,3013.4412018,N,12015.5947997,E,1,12,1.1,16.336,M,0.000,M,,*72

$GNVTG,255.50,T,,M,0.12,N,0.23,K,A*26

$GNRMC,030832.95,A,3013.4412018,N,12015.5947997,E,0.12,255.50,180925,,,A,V*3B

$GNGGA,030833.00,3013.4412025,N,12015.5948029,E,1,12,1.1,16.339,M,0.000,M,,*7D

$GNGSA,A,3,15,18,23,24,195,,,,,,,,2.5,1.1,2.3,1*00

$GNGSA,A,3,,,,,,,,,,,,,2.5,1.1,2.3,4*32

$GNGSA,A,3,86,80,87,71,,,,,,,,,2.5,1.1,2.3,2*3B

$GNGSA,A,3,03,13,34,,,,,,,,,,2.5,1.1,2.3,3*33

$GPGSV,3,1,11,05,00,000,25,10,00,000,21,13,00,000,31,15,50,034,36,1*65

$GPGSV,3,2,11,18,63,269,36,23,45,328,37,24,75,151,43,32,00,000,19,1*63

$GPGSV,3,3,11,195,47,165,37,199,00,000,32,200,00,000,00,,,,,1*6E

$BDGSV,1,1,01,13,00,000,22,,,,,,,,,,,,,1*46

$GLGSV,1,1,04,86,50,276,32,80,27,060,21,87,23,323,18,71,44,335,36,1*7E

$GAGSV,3,1,10,03,62,010,37,05,00,000,29,07,00,000,00,08,00,000,00,7*73

$GAGSV,3,2,10,13,28,319,31,15,00,000,32,16,00,000,00,24,00,000,00,7*76

$GAGSV,3,3,10,25,00,000,00,34,38,163,34,,,,,,,,,7*7A

$GNVTG,255.50,T,,M,0.06,N,0.11,K,A*22

$GNRMC,030833.00,A,3013.4412025,N,12015.5948029,E,0.06,255.50,180925,,,A,V*3E

$GNGGA,030833.05,3013.4412058,N,12015.5948060,E,1,12,1.1,16.351,M,0.000,M,,*71

$GNVTG,255.50,T,,M,0.08,N,0.15,K,A*28

$GNRMC,030833.05,A,3013.4412058,N,12015.5948060,E,0.08,255.50,180925,,,A,V*32

$GNGGA,030833.10,3013.4412066,N,12015.5948049,E,1,12,1.1,16.372,M,0.000,M,,*72

$GNVTG,256.00,T,,M,0.16,N,0.30,K,A*26

$GNRMC,030833.10,A,3013.4412066,N,12015.5948049,E,0.16,256.00,180925,,,A,V*39

$GNGGA,030833.15,3013.4412079,N,12015.5948080,E,1,12,1.1,16.392,M,0.000,M,,*72

$GNVTG,256.00,T,,M,0.10,N,0.18,K,A*2A

$GNRMC,030833.15,A,3013.4412079,N,12015.5948080,E,0.10,256.00,180925,,,A,V*31

$GNGGA,030833.20,3013.4412085,N,12015.5948108,E,1,12,1.1,16.398,M,0.000,M,,*7C

$GNVTG,256.00,T,,M,0.05,N,0.10,K,A*26

$GNRMC,030833.20,A,3013.4412085,N,12015.5948108,E,0.05,256.00,180925,,,A,V*31

$GNGGA,030833.25,3013.4412111,N,12015.5948129,E,1,12,1.1,16.402,M,0.000,M,,*72

$GNVTG,256.00,T,,M,0.07,N,0.13,K,A*27

$GNRMC,030833.25,A,3013.4412111,N,12015.5948129,E,0.07,256.00,180925,,,A,V*39

$GNGGA,030833.30,3013.4412119,N,12015.5948138,E,1,12,1.1,16.418,M,0.000,M,,*75

$GNVTG,256.00,T,,M,0.05,N,0.09,K,A*2E

$GNRMC,030833.30,A,3013.4412119,N,12015.5948138,E,0.05,256.00,180925,,,A,V*37

$GNGGA,030833.35,3013.4412136,N,12015.5948143,E,1,12,1.1,16.426,M,0.000,M,,*7C

$GNVTG,256.00,T,,M,0.05,N,0.09,K,A*2E

$GNRMC,030833.35,A,3013.4412136,N,12015.5948143,E,0.05,256.00,180925,,,A,V*33

$GNGGA,030833.40,3013.4412142,N,12015.5948181,E,1,12,1.1,16.440,M,0.000,M,,*73

$GNVTG,256.00,T,,M,0.01,N,0.01,K,A*22

$GNRMC,030833.40,A,3013.4412142,N,12015.5948181,E,0.01,256.00,180925,,,A,V*38

$GNGGA,030833.45,3013.4412139,N,12015.5948169,E,1,12,1.1,16.448,M,0.000,M,,*74

$GNVTG,256.00,T,,M,0.10,N,0.19,K,A*2B

$GNRMC,030833.45,A,3013.4412139,N,12015.5948169,E,0.10,256.00,180925,,,A,V*37

$GNGGA,030833.50,3013.4412164,N,12015.5948179,E,1,12,1.1,16.461,M,0.000,M,,*72

$GNVTG,255.95,T,,M,0.13,N,0.24,K,A*29

$GNRMC,030833.50,A,3013.4412164,N,12015.5948179,E,0.13,255.95,180925,,,A,V*36

$GNGGA,030833.55,3013.4412178,N,12015.5948240,E,1,12,1.1,16.480,M,0.000,M,,*7C

$GNVTG,255.95,T,,M,0.05,N,0.09,K,A*21

$GNRMC,030833.55,A,3013.4412178,N,12015.5948240,E,0.05,255.95,180925,,,A,V*30

$GNGGA,030833.60,3013.4412183,N,12015.5948266,E,1,12,1.1,16.498,M,0.000,M,,*73

$GNVTG,255.95,T,,M,0.13,N,0.24,K,A*29

$GNRMC,030833.60,A,3013.4412183,N,12015.5948266,E,0.13,255.95,180925,,,A,V*31

$GNGGA,030833.65,3013.4412195,N,12015.5948265,E,1,12,1.1,16.499,M,0.000,M,,*73

$GNVTG,261.33,T,,M,0.08,N,0.15,K,A*2A

$GNRMC,030833.65,A,3013.4412195,N,12015.5948265,E,0.08,261.33,180925,,,A,V*31

$GNGGA,030833.70,3013.4412200,N,12015.5948277,E,1,12,1.1,16.511,M,0.000,M,,*7A

$GNVTG,261.33,T,,M,0.01,N,0.01,K,A*26

$GNRMC,030833.70,A,3013.4412200,N,12015.5948277,E,0.01,261.33,180925,,,A,V*30

$GNGGA,030833.75,3013.4412229,N,12015.5948326,E,1,12,1.1,16.518,M,0.000,M,,*78

$GNVTG,261.33,T,,M,0.12,N,0.22,K,A*25

$GNRMC,030833.75,A,3013.4412229,N,12015.5948326,E,0.12,261.33,180925,,,A,V*39

$GNGGA,030833.80,3013.4412233,N,12015.5948330,E,1,12,1.1,16.527,M,0.000,M,,*72

$GNVTG,261.33,T,,M,0.04,N,0.08,K,A*2A

$GNRMC,030833.80,A,3013.4412233,N,12015.5948330,E,0.04,261.33,180925,,,A,V*38

$GNGGA,030833.85,3013.4412255,N,12015.5948354,E,1,12,1.1,16.544,M,0.000,M,,*70

$GNVTG,261.33,T,,M,0.07,N,0.13,K,A*23

$GNRMC,030833.85,A,3013.4412255,N,12015.5948354,E,0.07,261.33,180925,,,A,V*3C

$GNGGA,030833.90,3013.4412255,N,12015.5948374,E,1,12,1.1,16.557,M,0.000,M,,*74

$GNVTG,261.33,T,,M,0.09,N,0.18,K,A*26

$GNRMC,030833.90,A,3013.4412255,N,12015.5948374,E,0.09,261.33,180925,,,A,V*34

$GNGGA,030833.95,3013.4412272,N,12015.5948388,E,1,12,1.1,16.571,M,0.000,M,,*73

$GNVTG,261.33,T,,M,0.02,N,0.04,K,A*20

$GNRMC,030833.95,A,3013.4412272,N,12015.5948388,E,0.02,261.33,180925,,,A,V*3C

$GNGGA,030834.00,3013.4412301,N,12015.5948484,E,1,12,1.1,16.573,M,0.000,M,,*74

$GNGSA,A,3,15,18,23,24,195,,,,,,,,2.5,1.1,2.3,1*00

$GNGSA,A,3,,,,,,,,,,,,,2.5,1.1,2.3,4*32

$GNGSA,A,3,86,80,87,71,,,,,,,,,2.5,1.1,2.3,2*3B

$GNGSA,A,3,03,13,34,,,,,,,,,,2.5,1.1,2.3,3*33

$GPGSV,3,1,11,05,00,000,24,10,00,000,21,13,00,000,31,15,50,034,36,1*64

$GPGSV,3,2,11,18,63,269,35,23,45,328,37,24,75,151,43,32,00,000,18,1*61

$GPGSV,3,3,11,195,47,165,37,199,00,000,32,200,00,000,00,,,,,1*6E

$BDGSV,1,1,01,13,00,000,23,,,,,,,,,,,,,1*47

$GLGSV,1,1,04,86,50,276,32,80,27,060,22,87,23,323,19,71,44,335,36,1*7C

$GAGSV,3,1,10,03,62,010,37,05,00,000,29,07,00,000,00,08,00,000,00,7*73

$GAGSV,3,2,10,13,28,319,32,15,00,000,32,16,00,000,00,24,00,000,00,7*75

$GAGSV,3,3,10,25,00,000,00,34,38,163,34,,,,,,,,,7*7A

$GNVTG,261.33,T,,M,0.05,N,0.09,K,A*2A

$GNRMC,030834.00,A,3013.4412301,N,12015.5948484,E,0.05,261.33,180925,,,A,V*3E

$GNGGA,030834.05,3013.4412345,N,12015.5948562,E,1,12,1.1,16.574,M,0.000,M,,*7F

$GNVTG,261.33,T,,M,0.10,N,0.18,K,A*2E

$GNRMC,030834.05,A,3013.4412345,N,12015.5948562,E,0.10,261.33,180925,,,A,V*36

$GNGGA,030834.10,3013.4412376,N,12015.5948598,E,1,12,1.1,16.579,M,0.000,M,,*73

$GNVTG,261.33,T,,M,0.08,N,0.15,K,A*2A

$GNRMC,030834.10,A,3013.4412376,N,12015.5948598,E,0.08,261.33,180925,,,A,V*3E

$GNGGA,030834.15,3013.4412393,N,12015.5948675,E,1,12,1.1,16.581,M,0.000,M,,*7A

$GNVTG,260.40,T,,M,0.11,N,0.21,K,A*20

$GNRMC,030834.15,A,3013.4412393,N,12015.5948675,E,0.11,260.40,180925,,,A,V*3D

$GNGGA,030834.20,3013.4412429,N,12015.5948780,E,1,12,1.1,16.590,M,0.000,M,,*71

$GNVTG,260.40,T,,M,0.04,N,0.08,K,A*2F

$GNRMC,030834.20,A,3013.4412429,N,12015.5948780,E,0.04,260.40,180925,,,A,V*32

$GNGGA,030834.25,3013.4412468,N,12015.5948843,E,1,12,1.1,16.591,M,0.000,M,,*70

$GNVTG,260.40,T,,M,0.10,N,0.18,K,A*2B

$GNRMC,030834.25,A,3013.4412468,N,12015.5948843,E,0.10,260.40,180925,,,A,V*37

$GNGGA,030834.30,3013.4412490,N,12015.5948899,E,1,12,1.1,16.591,M,0.000,M,,*74

$GNVTG,260.40,T,,M,0.02,N,0.05,K,A*24

$GNRMC,030834.30,A,3013.4412490,N,12015.5948899,E,0.02,260.40,180925,,,A,V*30

$GNGGA,030834.35,3013.4412509,N,12015.5948973,E,1,12,1.1,16.598,M,0.000,M,,*7C

$GNVTG,260.40,T,,M,0.04,N,0.07,K,A*20

$GNRMC,030834.35,A,3013.4412509,N,12015.5948973,E,0.04,260.40,180925,,,A,V*37

$GNGGA,030834.40,3013.4412563,N,12015.5949075,E,1,12,1.1,16.600,M,0.000,M,,*7E

$GNVTG,260.40,T,,M,0.12,N,0.22,K,A*20

$GNRMC,030834.40,A,3013.4412563,N,12015.5949075,E,0.12,260.40,180925,,,A,V*30

$GNGGA,030834.45,3013.4412597,N,12015.5949146,E,1,12,1.1,16.604,M,0.000,M,,*75

$GNVTG,260.40,T,,M,0.08,N,0.14,K,A*2E

$GNRMC,030834.45,A,3013.4412597,N,12015.5949146,E,0.08,260.40,180925,,,A,V*34

$GNGGA,030834.50,3013.4412623,N,12015.5949210,E,1,12,1.1,16.613,M,0.000,M,,*7B

$GNVTG,260.40,T,,M,0.03,N,0.05,K,A*25

$GNRMC,030834.50,A,3013.4412623,N,12015.5949210,E,0.03,260.40,180925,,,A,V*37

$GNGGA,030834.55,3013.4412658,N,12015.5949272,E,1,12,1.1,16.624,M,0.000,M,,*72

$GNVTG,260.40,T,,M,0.04,N,0.08,K,A*2F

$GNRMC,030834.55,A,3013.4412658,N,12015.5949272,E,0.04,260.40,180925,,,A,V*3D

$GNGGA,030834.60,3013.4412680,N,12015.5949328,E,1,12,1.1,16.631,M,0.000,M,,*7B

$GNVTG,260.40,T,,M,0.02,N,0.03,K,A*22

$GNRMC,030834.60,A,3013.4412680,N,12015.5949328,E,0.02,260.40,180925,,,A,V*36

$GNGGA,030834.65,3013.4412713,N,12015.5949414,E,1,12,1.1,16.626,M,0.000,M,,*7B

$GNVTG,260.40,T,,M,0.02,N,0.04,K,A*25

$GNRMC,030834.65,A,3013.4412713,N,12015.5949414,E,0.02,260.40,180925,,,A,V*30

$GNGGA,030834.70,3013.4412753,N,12015.5949512,E,1,12,1.1,16.628,M,0.000,M,,*72

$GNVTG,260.40,T,,M,0.14,N,0.26,K,A*22

$GNRMC,030834.70,A,3013.4412753,N,12015.5949512,E,0.14,260.40,180925,,,A,V*30

$GNGGA,030834.75,3013.4412770,N,12015.5949567,E,1,12,1.1,16.626,M,0.000,M,,*7A

$GNVTG,260.40,T,,M,0.03,N,0.06,K,A*26

$GNRMC,030834.75,A,3013.4412770,N,12015.5949567,E,0.03,260.40,180925,,,A,V*30

$GNGGA,030834.80,3013.4412797,N,12015.5949637,E,1,12,1.1,16.637,M,0.000,M,,*7F

$GNVTG,260.40,T,,M,0.02,N,0.04,K,A*25

$GNRMC,030834.80,A,3013.4412797,N,12015.5949637,E,0.02,260.40,180925,,,A,V*34

$GNGGA,030834.85,3013.4412824,N,12015.5949692,E,1,12,1.1,16.645,M,0.000,M,,*77

$GNVTG,260.40,T,,M,0.08,N,0.15,K,A*2F

$GNRMC,030834.85,A,3013.4412824,N,12015.5949692,E,0.08,260.40,180925,,,A,V*33

$GNGGA,030834.90,3013.4412857,N,12015.5949782,E,1,12,1.1,16.643,M,0.000,M,,*71

$GNVTG,260.40,T,,M,0.09,N,0.17,K,A*2C

$GNRMC,030834.90,A,3013.4412857,N,12015.5949782,E,0.09,260.40,180925,,,A,V*32

$GNGGA,030834.95,3013.4412881,N,12015.5949845,E,1,12,1.1,16.650,M,0.000,M,,*79

$GNVTG,260.40,T,,M,0.08,N,0.15,K,A*2F

$GNRMC,030834.95,A,3013.4412881,N,12015.5949845,E,0.08,260.40,180925,,,A,V*39

$GNGGA,030835.00,3013.4412891,N,12015.5949863,E,1,12,1.1,16.660,M,0.000,M,,*72

$GNGSA,A,3,15,18,23,24,195,,,,,,,,2.5,1.1,2.3,1*00

$GNGSA,A,3,,,,,,,,,,,,,2.5,1.1,2.3,4*32

$GNGSA,A,3,86,80,87,71,,,,,,,,,2.5,1.1,2.3,2*3B

$GNGSA,A,3,03,13,34,,,,,,,,,,2.5,1.1,2.3,3*33

$GPGSV,3,1,11,05,00,000,24,10,00,000,25,13,00,000,31,15,50,034,36,1*60

$GPGSV,3,2,11,18,63,269,35,23,45,328,36,24,75,151,42,32,00,000,18,1*61

$GPGSV,3,3,11,195,47,165,37,199,00,000,32,200,00,000,13,,,,,1*6C

$BDGSV,1,1,01,13,00,000,23,,,,,,,,,,,,,1*47

$GLGSV,1,1,04,86,50,276,32,80,27,060,21,87,23,323,21,71,44,335,36,1*74

$GAGSV,3,1,10,03,62,010,37,05,00,000,29,07,00,000,00,08,00,000,00,7*73

$GAGSV,3,2,10,13,28,319,32,15,00,000,32,16,00,000,00,24,00,000,00,7*75

$GAGSV,3,3,10,25,00,000,00,34,38,163,34,,,,,,,,,7*7A

$GNVTG,260.40,T,,M,0.01,N,0.01,K,A*23

$GNRMC,030835.00,A,3013.4412891,N,12015.5949863,E,0.01,260.40,180925,,,A,V*38

$GNGGA,030835.05,3013.4412903,N,12015.5949885,E,1,12,1.1,16.662,M,0.000,M,,*77

$GNVTG,260.40,T,,M,0.08,N,0.14,K,A*2E

$GNRMC,030835.05,A,3013.4412903,N,12015.5949885,E,0.08,260.40,180925,,,A,V*36

$GNGGA,030835.10,3013.4412919,N,12015.5949905,E,1,12,1.1,16.674,M,0.000,M,,*76

$GNVTG,260.40,T,,M,0.08,N,0.15,K,A*2F

$GNRMC,030835.10,A,3013.4412919,N,12015.5949905,E,0.08,260.40,180925,,,A,V*30

$GNGGA,030835.15,3013.4412923,N,12015.5949916,E,1,12,1.1,16.685,M,0.000,M,,*76

$GNVTG,260.40,T,,M,0.03,N,0.06,K,A*26

$GNRMC,030835.15,A,3013.4412923,N,12015.5949916,E,0.03,260.40,180925,,,A,V*35

$GNGGA,030835.20,3013.4412926,N,12015.5949930,E,1,12,1.1,16.684,M,0.000,M,,*70

$GNVTG,260.40,T,,M,0.10,N,0.19,K,A*2A

