,2,10,18,63,267,07,23,46,328,42,24,76,148,45,41,36,237,41,1*68

,N,12015.58820,E,031128.50,A,A*74

µb\13.43876,N,12015.58821,E,1,12,0.77,9.5,M,7.5,M,,*7E

$GNGSA,A,3,15,23,24,10,13,,,,,,,,1.47,0.77,1.26,1*06

$GNGSA,A,3,34,15,13,03,,,,,,,,,1.47,0.77,1.26,3*06

$GNGSA,A,3,08,13,16,21,22,02,03,,,,,,1.47,0.77,1.26,4*0C

$GNGSA,A,3,07,03,,,,,,,,,,,1.47,0.77,1.26,5*06

$GPGSV,3,1,10,05,,,26,10,09,308,30,13,20,049,32,15,49,035,41,1*50

$GPGSV,3,2,10,18,63,266,26,23,46,329,41,24,76,147,42,41,36,237,40,1*61

$GPGSV,3,3,10,42,54,167,45,50,54,167,39,1*6D

$GAGSV,1,1,04,03,61,012,43,13,29,318,40,15,73,252,42,34,37,164,43,7*74

$GAGSV,1,1,01,16,08,081,,0*43

$GBGSV,2,1,08,02,40,239,36,03,55,200,39,08,59,003,40,13,54,343,42,1*7F

$GBGSV,2,2,08,16,48,187,40,21,45,316,46,22,49,042,41,60,,,35,1*45

$GQGSV,1,1,02,03,47,166,42,07,54,167,35,1*60

$GQGSV,1,1,01,02,11,151,,0*52

$GNGLL,3013.43876,N,12015.58821,E,031128.60,A,A*76

µb\.030,K,A*39

$GNGGA,031128.70,3013.43876,N,12015.58821,E,1,12,0.77,9.5,M,7.5,M,,*7F

$GNGSA,A,3,15,23,24,10,13,,,,,,,,1.47,0.77,1.26,1*06

$GNGSA,A,3,34,15,13,03,,,,,,,,,1.47,0.77,1.26,3*06

$GNGSA,A,3,08,13,16,21,22,02,03,,,,,,1.47,0.77,1.26,4*0C

$GNGSA,A,3,07,03,,,,,,,,,,,1.47,0.77,1.26,5*06

$GPGSV,3,1,10,05,,,26,10,09,308,30,13,20,049,32,15,49,035,41,1*50

$GPGSV,3,2,10,18,63,266,26,23,46,329,40,24,76,147,42,41,36,237,40,1*60

$GPGSV,3,3,10,42,54,167,45,50,54,167,39,1*6D

$GAGSV,1,1,04,03,61,012,43,13,29,318,40,15,73,252,42,34,37,164,43,7*74

$GAGSV,1,1,01,16,08,081,,0*43

$GBGSV,2,1,08,02,40,239,36,03,55,200,39,08,59,003,40,13,54,343,42,1*7F

$GBGSV,2,2,08,16,48,187,40,21,45,316,46,22,49,042,41,60,,,35,1*45

$GQGSV,1,1,02,03,47,166,42,07,54,167,35,1*60

$GQGSV,1,1,01,02,11,151,,0*52

$GNGLL,3013.43876,N,12015.58821,E,031128.70,A,A*77

µb\.046,K,A*38

$GNGGA,031128.80,3013.43876,N,12015.58821,E,1,12,0.77,9.5,M,7.5,M,,*70

$GNGSA,A,3,15,23,24,10,13,,,,,,,,1.47,0.77,1.26,1*06

$GNGSA,A,3,34,15,13,03,,,,,,,,,1.47,0.77,1.26,3*06

$GNGSA,A,3,08,13,16,21,22,02,03,,,,,,1.47,0.77,1.26,4*0C

$GNGSA,A,3,07,03,,,,,,,,,,,1.47,0.77,1.26,5*06

$GPGSV,3,1,10,05,,,26,10,09,308,30,13,20,049,32,15,49,035,41,1*50

$GPGSV,3,2,10,18,63,266,26,23,46,329,40,24,76,147,42,41,36,237,40,1*60

$GPGSV,3,3,10,42,54,167,45,50,54,167,39,1*6D

$GAGSV,1,1,04,03,61,012,42,13,29,318,40,15,73,252,42,34,37,164,43,7*75

$GAGSV,1,1,01,16,08,081,,0*43

$GBGSV,2,1,08,02,40,239,35,03,55,200,38,08,59,003,39,13,54,343,41,1*70

$GBGSV,2,2,08,16,48,187,39,21,45,316,44,22,49,042,40,60,,,34,1*49

$GQGSV,1,1,02,03,47,166,42,07,54,167,35,1*60

$GQGSV,1,1,01,02,11,151,,0*52

$GNGLL,3013.43876,N,12015.58821,E,031128.80,A,A*78

µb\

$GNGGA,031128.90,3013.43876,N,12015.58822,E,1,12,0.77,9.5,M,7.5,M,,*72

$GNGSA,A,3,15,23,24,10,13,,,,,,,,1.47,0.77,1.26,1*06

$GNGSA,A,3,34,15,13,03,,,,,,,,,1.47,0.77,1.26,3*06

$GNGSA,A,3,08,13,16,21,22,02,03,,,,,,1.47,0.77,1.26,4*0C

$GNGSA,A,3,07,03,,,,,,,,,,,1.47,0.77,1.26,5*06

$GPGSV,3,1,10,05,,,26,10,09,308,30,13,20,049,32,15,49,035,41,1*50

$GPGSV,3,2,10,18,63,266,26,23,46,329,40,24,76,147,42,41,36,237,40,1*60

$GPGSV,3,3,10,42,54,167,45,50,54,167,39,1*6D

$GAGSV,1,1,04,03,61,012,42,13,29,318,40,15,73,252,42,34,37,164,43,7*75

$GAGSV,1,1,01,16,08,081,,0*43

$GBGSV,2,1,08,02,40,239,35,03,55,200,38,08,59,003,39,13,54,343,41,1*70

$GBGSV,2,2,08,16,48,187,39,21,45,316,44,22,49,042,40,60,,,34,1*49

$GQGSV,1,1,02,03,47,166,42,07,54,167,35,1*60

$GQGSV,1,1,01,02,11,151,,0*52

$GNGLL,3013.43876,N,12015.58822,E,031128.90,A,A*7A

µb\®G2ÐjB6,N,12015.58822,E,0.016,,180925,,,A,V*11

$GNVTG,,T,,M,0.016,N,0.030,K,A*39

$GNGGA,031129.00,3013.43876,N,12015.58822,E,1,12,0.77,9.5,M,7.5,M,,*7A

$GNGSA,A,3,15,23,24,10,13,,,,,,,,1.47,0.77,1.26,1*06

$GNGSA,A,3,34,15,13,03,,,,,,,,,1.47,0.77,1.26,3*06

$GNGSA,A,3,08,13,16,21,22,02,03,,,,,,1.47,0.77,1.26,4*0C

$GNGSA,A,3,07,03,,,,,,,,,,,1.47,0.77,1.26,5*06

$GPGSV,3,1,10,05,,,26,10,09,308,30,13,20,049,32,15,49,035,41,1*50

$GPGSV,3,2,10,18,63,266,26,23,46,329,40,24,76,147,42,41,36,237,40,1*60

$GPGSV,3,3,10,42,54,167,45,50,54,167,39,1*6D

$GAGSV,1,1,04,03,61,012,42,13,29,318,40,15,73,252,42,34,37,164,43,7*75

$GAGSV,1,1,01,16,08,081,,0*43

$GBGSV,2,1,08,02,40,239,35,03,55,200,38,08,59,003,39,13,54,343,41,1*70

$GBGSV,2,2,08,16,48,187,39,21,45,316,44,22,49,042,40,60,,,33,1*4E

$GQGSV,1,1,02,03,47,166,42,07,54,167,35,1*60

$GQGSV,1,1,01,02,11,151,,0*52

$GNGLL,3013.43876,N,12015.58822,E,031129.00,A,A*72

µb\	÷ë8822,E,0.016,,180925,,,A,V*10

$GNVTG,,T,,M,0.016,N,0.029,K,A*31

$GNGGA,031129.10,3013.43876,N,12015.58822,E,1,12,0.77,9.5,M,7.5,M,,*7B

$GNGSA,A,3,15,23,24,10,13,,,,,,,,1.47,0.77,1.26,1*06

$GNGSA,A,3,34,15,13,03,,,,,,,,,1.47,0.77,1.26,3*06

$GNGSA,A,3,08,13,16,21,22,02,03,,,,,,1.47,0.77,1.26,4*0C

$GNGSA,A,3,07,03,,,,,,,,,,,1.47,0.77,1.26,5*06

$GPGSV,3,1,10,05,,,26,10,09,308,30,13,20,049,32,15,49,035,41,1*50

$GPGSV,3,2,10,18,63,266,26,23,46,329,40,24,76,147,42,41,36,237,40,1*60

$GPGSV,3,3,10,42,54,167,45,50,54,167,39,1*6D

$GAGSV,1,1,04,03,61,012,42,13,29,318,40,15,73,252,42,34,37,164,43,7*75

$GAGSV,1,1,01,16,08,081,,0*43

$GBGSV,2,1,08,02,40,239,35,03,55,200,38,08,59,003,39,13,54,343,41,1*70

$GBGSV,2,2,08,16,48,187,39,21,45,316,44,22,49,042,40,60,,,33,1*4E

$GQGSV,1,1,02,03,47,166,42,07,54,167,35,1*60

$GQGSV,1,1,01,02,11,151,,0*52

$GNGLL,3013.43876,N,12015.58822,E,031129.10,A,A*73

µb\õ	èê–0®G2Ð_B3,,180925,,,A,V*14

$GNVTG,,T,,M,0.033,N,0.061,K,A*3A

$GNGGA,031129.20,3013.43877,N,12015.58823,E,1,12,0.77,9.5,M,7.5,M,,*78

$GNGSA,A,3,15,23,24,10,13,,,,,,,,1.47,0.77,1.26,1*06

$GNGSA,A,3,34,15,13,03,,,,,,,,,1.47,0.77,1.26,3*06

$GNGSA,A,3,08,13,16,21,22,02,03,,,,,,1.47,0.77,1.26,4*0C

$GNGSA,A,3,07,03,,,,,,,,,,,1.47,0.77,1.26,5*06

$GPGSV,3,1,10,05,,,26,10,09,308,30,13,20,049,32,15,49,035,41,1*50

$GPGSV,3,2,10,18,63,266,27,23,46,329,40,24,76,147,42,41,36,237,40,1*61

$GPGSV,3,3,10,42,54,167,45,50,54,167,39,1*6D

$GAGSV,1,1,04,03,61,012,42,13,29,318,40,15,73,252,41,34,37,164,43,7*76

$GAGSV,1,1,01,16,08,081,,0*43

$GBGSV,2,1,08,02,40,239,35,03,55,200,38,08,59,003,39,13,54,343,42,1*73

$GBGSV,2,2,08,16,48,187,40,21,45,316,44,22,49,042,41,60,,,34,1*46

$GQGSV,1,1,02,03,47,166,42,07,54,167,35,1*60

$GQGSV,1,1,01,02,11,151,,0*52

$GNGLL,3013.43877,N,12015.58823,E,031129.20,A,A*70

µb\G2ÐVB,N,12015.58823,E,0.010,,180925,,,A,V*14

$GNVTG,,T,,M,0.010,N,0.018,K,A*35

$GNGGA,031129.30,3013.43877,N,12015.58823,E,1,12,0.77,9.5,M,7.5,M,,*79

$GNGSA,A,3,15,23,24,10,13,,,,,,,,1.47,0.77,1.26,1*06

$GNGSA,A,3,34,15,13,03,,,,,,,,,1.47,0.77,1.26,3*06

$GNGSA,A,3,08,13,16,21,22,02,03,,,,,,1.47,0.77,1.26,4*0C

$GNGSA,A,3,07,03,,,,,,,,,,,1.47,0.77,1.26,5*06

$GPGSV,3,1,10,05,,,26,10,09,308,30,13,20,049,32,15,49,035,41,1*50

$GPGSV,3,2,10,18,63,266,26,23,46,329,40,24,76,147,42,41,36,237,40,1*60

$GPGSV,3,3,10,42,54,167,45,50,54,167,39,1*6D

$GAGSV,1,1,04,03,61,012,42,13,29,318,40,15,73,252,41,34,37,164,43,7*76

$GAGSV,1,1,01,16,08,081,,0*43

$GBGSV,2,1,08,02,40,239,35,03,55,200,38,08,59,003,38,13,54,343,41,1*71

$GBGSV,2,2,08,16,48,187,39,21,45,316,44,22,49,042,40,60,,,33,1*4E

$GQGSV,1,1,02,03,47,166,42,07,54,167,35,1*60

$GQGSV,1,1,01,02,11,151,,0*52

$GNGLL,3013.43877,N,12015.58823,E,031129.30,A,A*71

µb\823,E,0.035,,180925,,,A,V*14

$GNVTG,,T,,M,0.035,N,0.065,K,A*38

$GNGGA,031129.40,3013.43877,N,12015.58823,E,1,12,0.77,9.5,M,7.5,M,,*7E

$GNGSA,A,3,15,23,24,10,13,,,,,,,,1.47,0.77,1.26,1*06

$GNGSA,A,3,34,15,13,03,,,,,,,,,1.47,0.77,1.26,3*06

$GNGSA,A,3,08,13,16,21,22,02,03,,,,,,1.47,0.77,1.26,4*0C

$GNGSA,A,3,07,03,,,,,,,,,,,1.47,0.77,1.26,5*06

$GPGSV,3,1,10,05,,,26,10,09,308,30,13,20,049,32,15,49,035,41,1*50

$GPGSV,3,2,10,18,63,266,27,23,46,329,40,24,76,147,42,41,36,237,40,1*61

$GPGSV,3,3,10,42,54,167,45,50,54,167,39,1*6D

$GAGSV,1,1,04,03,61,012,42,13,29,318,40,15,73,252,41,34,37,164,43,7*76

$GAGSV,1,1,01,16,08,081,,0*43

$GBGSV,2,1,08,02,40,239,35,03,55,200,38,08,59,003,38,13,54,343,41,1*71

$GBGSV,2,2,08,16,48,187,39,21,45,316,44,22,49,042,40,60,,,33,1*4E

$GQGSV,1,1,02,03,47,166,42,07,54,167,35,1*60

$GQGSV,1,1,01,02,11,151,,0*52

$GNGLL,3013.43877,N,12015.58823,E,031129.40,A,A*76

µb\®G3ÐIB,,A,V*11

$GNVTG,,T,,M,0.063,N,0.116,K,A*3E

$GNGGA,031129.50,3013.43877,N,12015.58824,E,1,12,0.77,9.5,M,7.5,M,,*78

$GNGSA,A,3,15,23,24,10,13,,,,,,,,1.47,0.77,1.26,1*06

$GNGSA,A,3,34,15,13,03,,,,,,,,,1.47,0.77,1.26,3*06

$GNGSA,A,3,08,13,16,21,22,02,03,,,,,,1.47,0.77,1.26,4*0C

$GNGSA,A,3,07,03,,,,,,,,,,,1.47,0.77,1.26,5*06

$GPGSV,3,1,10,05,,,26,10,09,308,30,13,20,049,31,15,49,035,41,1*53

$GPGSV,3,2,10,18,63,266,27,23,46,329,40,24,76,147,42,41,36,237,40,1*61

$GPGSV,3,3,10,42,54,167,45,50,54,167,39,1*6D

$GAGSV,1,1,04,03,61,012,42,13,29,318,40,15,73,252,41,34,37,164,43,7*76

$GAGSV,1,1,01,16,08,081,,0*43

$GBGSV,2,1,08,02,40,239,35,03,55,200,38,08,59,003,38,13,54,343,41,1*71

$GBGSV,2,2,08,16,48,187,39,21,45,316,44,22,49,042,40,60,,,33,1*4E

$GQGSV,1,1,02,03,47,166,42,07,54,167,35,1*60

$GQGSV,1,1,01,02,11,151,,0*52

$GNGLL,3013.43877,N,12015.58824,E,031129.50,A,A*70

µb\®G3ÐGB,,A,V*14

$GNVTG,,T,,M,0.047,N,0.086,K,A*30

$GNGGA,031129.60,3013.43877,N,12015.58824,E,1,12,0.77,9.5,M,7.5,M,,*7B

$GNGSA,A,3,15,23,24,10,13,,,,,,,,1.47,0.77,1.26,1*06

$GNGSA,A,3,34,15,13,03,,,,,,,,,1.47,0.77,1.26,3*06

$GNGSA,A,3,08,13,16,21,22,02,03,,,,,,1.47,0.77,1.26,4*0C

$GNGSA,A,3,07,03,,,,,,,,,,,1.47,0.77,1.26,5*06

$GPGSV,3,1,10,05,,,26,10,09,308,30,13,20,049,31,15,49,035,41,1*53

$GPGSV,3,2,10,18,63,266,27,23,46,329,40,24,76,147,42,41,36,237,40,1*61

$GPGSV,3,3,10,42,54,167,45,50,54,167,39,1*6D

$GAGSV,1,1,04,03,61,012,42,13,29,318,40,15,73,252,41,34,37,164,43,7*76

$GAGSV,1,1,01,16,08,081,,0*43

$GBGSV,2,1,08,02,40,239,35,03,55,200,38,08,59,003,38,13,54,343,41,1*71

$GBGSV,2,2,08,16,48,187,39,21,45,316,44,22,49,042,40,60,,,33,1*4E

$GQGSV,1,1,02,03,47,166,42,07,54,167,35,1*60

$GQGSV,1,1,01,02,11,151,,0*52

$GNGLL,3013.43877,N,12015.58824,E,031129.60,A,A*73

µb\®G3ÐGB7,N,12015.58824,E,0.059,,180925,,,A,V*1A

$GNVTG,,T,,M,0.059,N,0.110,K,A*31

$GNGGA,031129.70,3013.43877,N,12015.58824,E,1,12,0.77,9.5,M,7.5,M,,*7A

$GNGSA,A,3,15,23,24,10,13,18,,,,,,,1.47,0.77,1.26,1*0F

$GNGSA,A,3,34,15,13,03,,,,,,,,,1.47,0.77,1.26,3*06

$GNGSA,A,3,08,13,16,21,22,02,03,,,,,,1.47,0.77,1.26,4*0C

$GNGSA,A,3,07,03,,,,,,,,,,,1.47,0.77,1.26,5*06

$GPGSV,3,1,10,05,,,25,10,09,308,30,13,20,049,31,15,49,035,41,1*50

$GPGSV,3,2,10,18,63,266,27,23,46,329,40,24,76,147,42,41,36,237,40,1*61

$GPGSV,3,3,10,42,54,167,45,50,54,167,39,1*6D

$GAGSV,1,1,04,03,61,012,42,13,29,318,40,15,73,252,42,34,37,164,43,7*75

$GAGSV,1,1,01,16,08,081,,0*43

$GBGSV,2,1,08,02,40,239,35,03,55,200,38,08,59,003,38,13,54,343,41,1*71

$GBGSV,2,2,08,16,48,187,39,21,45,316,44,22,49,042,40,60,,,33,1*4E

$GQGSV,1,1,02,03,47,166,42,07,54,167,35,1*60

$GQGSV,1,1,01,02,11,151,,0*52

$GNGLL,3013.43877,N,12015.58824,E,031129.70,A,A*72

µb\®G3ÐAB,,A,V*18

$GNVTG,,T,,M,0.067,N,0.124,K,A*3B

$GNGGA,031129.80,3013.43877,N,12015.58824,E,1,12,0.75,9.5,M,7.5,M,,*77

$GNGSA,A,3,15,23,24,10,13,18,,,,,,,1.43,0.75,1.22,1*0D

$GNGSA,A,3,34,15,13,03,,,,,,,,,1.43,0.75,1.22,3*04

$GNGSA,A,3,08,13,16,21,22,02,03,,,,,,1.43,0.75,1.22,4*0E

$GNGSA,A,3,07,03,,,,,,,,,,,1.43,0.75,1.22,5*04

$GPGSV,3,1,10,05,,,25,10,09,308,30,13,20,049,31,15,49,035,41,1*50

$GPGSV,3,2,10,18,63,266,27,23,46,329,40,24,76,147,42,41,36,237,40,1*61

$GPGSV,3,3,10,42,54,167,45,50,54,167,39,1*6D

$GAGSV,1,1,04,03,61,012,42,13,29,318,40,15,73,252,42,34,37,164,43,7*75

$GAGSV,1,1,01,16,08,081,,0*43

$GBGSV,2,1,08,02,40,239,35,03,55,200,38,08,59,003,38,13,54,343,41,1*71

$GBGSV,2,2,08,16,48,187,39,21,45,316,44,22,49,042,40,60,,,33,1*4E

$GQGSV,1,1,02,03,47,166,41,07,54,167,35,1*63

$GQGSV,1,1,01,02,11,151,,0*52

$GNGLL,3013.43877,N,12015.58824,E,031129.80,A,A*7D

µb\13.43877,N,12015.58825,E,1,12,0.75,9.4,M,7.5,M,,*76

$GNGSA,A,3,15,23,24,10,13,18,,,,,,,1.43,0.75,1.22,1*0D

$GNGSA,A,3,34,15,13,03,,,,,,,,,1.43,0.75,1.22,3*04

$GNGSA,A,3,08,13,16,21,22,02,03,,,,,,1.43,0.75,1.22,4*0E

$GNGSA,A,3,07,03,,,,,,,,,,,1.43,0.75,1.22,5*04

$GPGSV,3,1,10,05,,,25,10,09,308,30,13,20,049,31,15,49,035,41,1*50

$GPGSV,3,2,10,18,63,266,27,23,46,329,41,24,76,147,42,41,36,237,40,1*60

$GPGSV,3,3,10,42,54,167,45,50,54,167,39,1*6D

$GAGSV,1,1,04,03,61,012,42,13,29,318,40,15,73,252,42,34,37,164,43,7*75

$GAGSV,1,1,01,16,08,081,,0*43

$GBGSV,2,1,08,02,40,239,35,03,55,200,38,08,59,003,38,13,54,343,41,1*71

$GBGSV,2,2,08,16,48,187,39,21,45,316,44,22,49,042,40,60,,,33,1*4E

$GQGSV,1,1,02,03,47,166,42,07,54,167,35,1*60

$GQGSV,1,1,01,02,11,151,,0*52

$GNGLL,3013.43877,N,12015.58825,E,031129.90,A,A*7D

µb\®G4Ð5B7,N,12015.58825,E,0.041,,180925,,,A,V*1D

$GNVTG,,T,,M,0.041,N,0.076,K,A*39

$GNGGA,031130.00,3013.43877,N,12015.58825,E,1,12,0.75,9.4,M,7.5,M,,*77

$GNGSA,A,3,15,23,24,10,13,18,,,,,,,1.43,0.75,1.22,1*0D

$GNGSA,A,3,34,15,13,03,,,,,,,,,1.43,0.75,1.22,3*04

$GNGSA,A,3,08,13,16,21,22,02,03,,,,,,1.43,0.75,1.22,4*0E

$GNGSA,A,3,07,03,,,,,,,,,,,1.43,0.75,1.22,5*04

$GPGSV,3,1,10,05,,,25,10,09,308,31,13,20,049,31,15,49,035,40,1*50

$GPGSV,3,2,10,18,63,266,27,23,46,329,42,24,76,147,43,41,36,237,41,1*63

$GPGSV,3,3,10,42,54,167,45,50,54,167,39,1*6D

$GAGSV,1,1,04,03,61,012,42,13,29,318,40,15,73,252,42,34,37,164,43,7*75

$GAGSV,1,1,01,16,08,081,,0*43

$GBGSV,2,1,08,02,40,239,35,03,55,200,38,08,59,003,38,13,54,343,41,1*71

$GBGSV,2,2,08,16,48,187,39,21,45,316,44,22,49,042,40,60,,,34,1*49

$GQGSV,1,1,02,03,47,166,42,07,54,167,35,1*60

$GQGSV,1,1,01,02,11,151,,0*52

$GNGLL,3013.43877,N,12015.58825,E,031130.00,A,A*7C

µb\é	÷ë.58825,E,0.055,,180925,,,A,V*16

$GNVTG,,T,,M,0.055,N,0.101,K,A*3D

$GNGGA,031130.10,3013.43878,N,12015.58825,E,1,12,0.75,9.4,M,7.5,M,,*79

$GNGSA,A,3,15,23,24,10,13,18,,,,,,,1.43,0.75,1.22,1*0D

$GNGSA,A,3,34,15,13,03,,,,,,,,,1.43,0.75,1.22,3*04

$GNGSA,A,3,08,13,16,21,22,02,03,,,,,,1.43,0.75,1.22,4*0E

$GNGSA,A,3,07,03,,,,,,,,,,,1.43,0.75,1.22,5*04

$GPGSV,3,1,10,05,,,25,10,09,308,34,13,20,049,31,15,49,035,40,1*55

$GPGSV,3,2,10,18,63,266,27,23,46,329,40,24,76,147,43,41,36,237,41,1*61

$GPGSV,3,3,10,42,54,167,45,50,54,167,39,1*6D

$GAGSV,1,1,04,03,61,012,42,13,29,318,40,15,73,252,42,34,37,164,43,7*75

$GAGSV,1,1,01,16,08,081,,0*43

$GBGSV,2,1,08,02,40,239,35,03,55,200,36,08,59,003,38,13,54,343,43,1*7D

$GBGSV,2,2,08,16,48,187,39,21,45,316,44,22,49,042,39,60,,,34,1*47

$GQGSV,1,1,02,03,47,166,42,07,54,167,36,1*63

$GQGSV,1,1,01,02,11,151,,0*52

$GNGLL,3013.43878,N,12015.58825,E,031130.10,A,A*72

µb\ë0.100,,180925,,,A,V*14

$GNVTG,,T,,M,0.100,N,0.186,K,A*33

$GNGGA,031130.20,3013.43878,N,12015.58825,E,1,12,0.75,9.4,M,7.5,M,,*7A

$GNGSA,A,3,15,23,24,10,13,18,,,,,,,1.43,0.75,1.22,1*0D

$GNGSA,A,3,34,15,13,03,,,,,,,,,1.43,0.75,1.22,3*04

$GNGSA,A,3,08,13,16,21,22,02,03,,,,,,1.43,0.75,1.22,4*0E

$GNGSA,A,3,07,03,,,,,,,,,,,1.43,0.75,1.22,5*04

$GPGSV,3,1,10,05,,,25,10,09,308,34,13,20,049,31,15,49,035,39,1*5B

$GPGSV,3,2,10,18,63,266,27,23,46,329,42,24,76,147,42,41,36,237,41,1*62

$GPGSV,3,3,10,42,54,167,45,50,54,167,40,1*63

$GAGSV,1,1,04,03,61,012,41,13,29,318,40,15,73,252,42,34,37,164,43,7*76

$GAGSV,1,1,01,16,08,081,,0*43

$GBGSV,2,1,08,02,40,239,36,03,55,200,36,08,59,003,39,13,54,343,43,1*7F

$GBGSV,2,2,08,16,48,187,38,21,45,316,43,22,49,042,38,60,,,35,1*41

$GQGSV,1,1,02,03,47,166,44,07,54,167,36,1*65

$GQGSV,1,1,01,02,11,151,,0*52

$GNGLL,3013.43878,N,12015.58825,E,031130.20,A,A*71

µb\ú›0®G4Ð/B.43878,N,12015.58826,E,0.072,,180925,,,A,V*12

$GNVTG,,T,,M,0.072,N,0.133,K,A*39

$GNGGA,031130.30,3013.43878,N,12015.58826,E,1,12,0.75,9.4,M,7.5,M,,*78

$GNGSA,A,3,15,23,24,10,13,18,,,,,,,1.43,0.75,1.22,1*0D

$GNGSA,A,3,34,15,13,03,,,,,,,,,1.43,0.75,1.22,3*04

$GNGSA,A,3,08,13,16,21,22,02,03,,,,,,1.43,0.75,1.22,4*0E

$GNGSA,A,3,07,03,,,,,,,,,,,1.43,0.75,1.22,5*04

$GPGSV,3,1,10,05,,,29,10,09,308,34,13,20,049,36,15,49,035,43,1*5D

$GPGSV,3,2,10,18,63,266,31,23,46,329,47,24,76,147,46,41,36,237,46,1*63

$GPGSV,3,3,10,42,54,167,49,50,54,167,43,1*6C

$GAGSV,1,1,04,03,61,012,44,13,29,318,43,15,73,252,45,34,37,164,45,7*71

$GAGSV,1,1,01,16,08,081,,0*43

$GBGSV,2,1,08,02,40,239,40,03,55,200,40,08,59,003,39,13,54,343,44,1*78

$GBGSV,2,2,08,16,48,187,42,21,45,316,47,22,49,042,40,60,,,39,1*4B

$GQGSV,1,1,02,03,47,166,47,07,54,167,40,1*67

$GQGSV,1,1,01,02,11,151,,0*52

$GNGLL,3013.43878,N,12015.58826,E,031130.30,A,A*73

µb\12015.58826,E,0.011,,180925,,,A,V*10

$GNVTG,,T,,M,0.011,N,0.020,K,A*3F

$GNGGA,031130.40,3013.43878,N,12015.58826,E,1,12,0.77,9.4,M,7.5,M,,*7D

$GNGSA,A,3,15,23,24,10,13,,,,,,,,1.47,0.77,1.26,1*06

$GNGSA,A,3,34,15,13,03,,,,,,,,,1.47,0.77,1.26,3*06

$GNGSA,A,3,08,13,16,21,22,02,03,,,,,,1.47,0.77,1.26,4*0C

$GNGSA,A,3,07,03,,,,,,,,,,,1.47,0.77,1.26,5*06

$GPGSV,3,1,10,05,,,29,10,09,308,29,13,20,049,31,15,49,035,35,1*57

$GPGSV,3,2,10,18,63,266,20,23,46,329,40,24,76,147,40,41,36,237,41,1*65

$GPGSV,3,3,10,42,54,167,43,50,54,167,39,1*6B

$GAGSV,1,1,04,03,61,012,39,13,29,318,37,15,73,252,40,34,37,164,40,7*78

$GAGSV,1,1,01,16,08,081,,0*43

$GBGSV,2,1,08,02,40,239,36,03,55,200,34,08,59,003,37,13,54,343,41,1*71

$GBGSV,2,2,08,16,48,187,37,21,45,316,42,22,49,042,34,60,,,35,1*43

$GQGSV,1,1,02,03,47,166,42,07,54,167,37,1*62

$GQGSV,1,1,01,02,11,151,,0*52

$GNGLL,3013.43878,N,12015.58826,E,031130.40,A,A*74

µb\ÿÿ.079,K,A*34

$GNGGA,031130.50,3013.43878,N,12015.58826,E,1,12,0.77,9.4,M,7.5,M,,*7C

$GNGSA,A,3,15,23,24,10,13,,,,,,,,1.47,0.77,1.26,1*06

$GNGSA,A,3,34,15,13,03,,,,,,,,,1.47,0.77,1.26,3*06

$GNGSA,A,3,08,13,16,21,22,02,03,,,,,,1.47,0.77,1.26,4*0C

$GNGSA,A,3,07,03,,,,,,,,,,,1.47,0.77,1.26,5*06

$GPGSV,3,1,09,05,,,29,10,09,308,29,13,20,049,31,15,49,035,35,1*5F

$GPGSV,3,2,09,23,46,329,37,24,76,147,40,41,36,237,41,42,54,167,43,1*61

$GPGSV,3,3,09,50,54,167,39,1*53

$GPGSV,1,1,01,18,63,266,,0*5A

$GAGSV,1,1,04,03,61,012,39,13,29,318,37,15,73,252,41,34,37,164,40,7*79

$GAGSV,1,1,01,16,08,081,,0*43

$GBGSV,2,1,08,02,40,239,37,03,55,200,35,08,59,003,37,13,54,343,41,1*71

$GBGSV,2,2,08,16,48,187,37,21,45,316,42,22,49,042,35,60,,,36,1*41

$GQGSV,1,1,02,03,47,166,42,07,54,167,37,1*62

$GQGSV,1,1,01,02,11,151,,0*52

$GNGLL,3013.43878,N,12015.58826,E,031130.50,A,A*75

µb\ÿÿ+.155,K,A*30

$GNGGA,031130.60,3013.43878,N,12015.58826,E,1,12,0.77,9.4,M,7.5,M,,*7F

$GNGSA,A,3,15,23,24,10,13,,,,,,,,1.47,0.77,1.26,1*06

$GNGSA,A,3,34,15,13,03,,,,,,,,,1.47,0.77,1.26,3*06

$GNGSA,A,3,08,13,16,21,22,02,03,,,,,,1.47,0.77,1.26,4*0C

$GNGSA,A,3,07,03,,,,,,,,,,,1.47,0.77,1.26,5*06

$GPGSV,3,1,09,05,,,29,10,09,308,30,13,20,049,31,15,49,035,36,1*54

$GPGSV,3,2,09,23,46,329,38,24,76,147,41,41,36,237,42,42,54,167,44,1*6B

$GPGSV,3,3,09,50,54,167,39,1*53

$GPGSV,1,1,01,18,63,266,,0*5A

$GAGSV,1,1,04,03,61,012,40,13,29,318,38,15,73,252,42,34,37,164,41,7*7A

$GAGSV,1,1,01,16,08,081,,0*43

$GBGSV,2,1,08,02,40,239,37,03,55,200,36,08,59,003,38,13,54,343,42,1*7E

$GBGSV,2,2,08,16,48,187,38,21,45,316,42,22,49,042,36,60,,,32,1*49

$GQGSV,1,1,02,03,47,166,42,07,54,167,37,1*62

$GQGSV,1,1,01,02,11,151,,0*52

$GNGLL,3013.43878,N,12015.58826,E,031130.60,A,A*76

µb\ÿÿ.094,K,A*34

$GNGGA,031130.70,3013.43878,N,12015.58826,E,1,12,0.77,9.4,M,7.5,M,,*7E

$GNGSA,A,3,15,23,24,10,13,,,,,,,,1.47,0.77,1.26,1*06

$GNGSA,A,3,34,15,13,03,,,,,,,,,1.47,0.77,1.26,3*06

$GNGSA,A,3,08,13,16,21,22,02,03,,,,,,1.47,0.77,1.26,4*0C

$GNGSA,A,3,07,03,,,,,,,,,,,1.47,0.77,1.26,5*06

$GPGSV,3,1,09,05,,,28,10,09,308,30,13,20,049,31,15,49,035,36,1*55

$GPGSV,3,2,09,23,46,329,38,24,76,147,41,41,36,237,42,42,54,167,44,1*6B

$GPGSV,3,3,09,50,54,167,40,1*5D

$GPGSV,1,1,01,18,63,266,,0*5A

$GAGSV,1,1,04,03,61,012,40,13,29,318,38,15,73,252,42,34,37,164,41,7*7A

$GAGSV,1,1,01,16,08,081,,0*43

$GBGSV,2,1,08,02,40,239,37,03,55,200,36,08,59,003,38,13,54,343,42,1*7E

$GBGSV,2,2,08,16,48,187,38,21,45,316,42,22,49,042,36,60,,,32,1*49

$GQGSV,1,1,02,03,47,166,42,07,54,167,37,1*62

$GQGSV,1,1,01,02,11,151,,0*52

$GNGLL,3013.43878,N,12015.58826,E,031130.70,A,A*77

µb\.253,K,A*3C

$GNGGA,031130.80,3013.43878,N,12015.58827,E,1,12,0.77,9.4,M,7.5,M,,*70

$GNGSA,A,3,15,23,24,10,13,,,,,,,,1.47,0.77,1.26,1*06

$GNGSA,A,3,34,15,13,03,,,,,,,,,1.47,0.77,1.26,3*06

$GNGSA,A,3,08,13,16,21,22,02,03,,,,,,1.47,0.77,1.26,4*0C

$GNGSA,A,3,07,03,,,,,,,,,,,1.47,0.77,1.26,5*06

$GPGSV,3,1,09,05,,,28,10,09,308,31,13,20,049,31,15,49,035,36,1*54

$GPGSV,3,2,09,23,46,329,38,24,76,147,41,41,36,237,42,42,54,167,44,1*6B

$GPGSV,3,3,09,50,54,167,40,1*5D

$GPGSV,1,1,01,18,63,266,,0*5A

$GAGSV,1,1,04,03,61,012,41,13,29,318,38,15,73,252,42,34,37,164,41,7*7B

$GAGSV,1,1,01,16,08,081,,0*43

$GBGSV,2,1,08,02,40,239,37,03,55,200,35,08,59,003,37,13,54,343,42,1*72

$GBGSV,2,2,08,16,48,187,37,21,45,316,42,22,49,042,36,60,,,32,1*46

$GQGSV,1,1,02,03,47,166,42,07,54,167,37,1*62

$GQGSV,1,1,01,02,11,151,,0*52

$GNGLL,3013.43878,N,12015.58827,E,031130.80,A,A*79

µb\®G5Ð5B8,N,12015.58827,E,0.058,,180925,,,A,V*11

$GNVTG,,T,,M,0.058,N,0.107,K,A*36

$GNGGA,031130.90,3013.43878,N,12015.58827,E,1,12,0.77,9.4,M,7.5,M,,*71

$GNGSA,A,3,15,23,24,10,13,,,,,,,,1.47,0.77,1.26,1*06

$GNGSA,A,3,34,15,13,03,,,,,,,,,1.47,0.77,1.26,3*06

$GNGSA,A,3,08,13,16,21,22,02,03,,,,,,1.47,0.77,1.26,4*0C

$GNGSA,A,3,07,03,,,,,,,,,,,1.47,0.77,1.26,5*06

$GPGSV,3,1,09,05,,,28,10,09,308,31,13,20,049,31,15,49,035,36,1*54

$GPGSV,3,2,09,23,46,329,38,24,76,147,41,41,36,237,42,42,54,167,44,1*6B

$GPGSV,3,3,09,50,54,167,40,1*5D

$GPGSV,1,1,01,18,63,266,,0*5A

$GAGSV,1,1,04,03,61,012,41,13,29,318,38,15,73,252,43,34,37,164,41,7*7A

$GAGSV,1,1,01,16,08,081,,0*43

$GBGSV,2,1,08,02,40,239,37,03,55,200,35,08,59,003,37,13,54,343,42,1*72

$GBGSV,2,2,08,16,48,187,37,21,45,316,42,22,49,042,36,60,,,32,1*46

$GQGSV,1,1,02,03,47,166,42,07,54,167,37,1*62

$GQGSV,1,1,01,02,11,151,,0*52

$GNGLL,3013.43878,N,12015.58827,E,031130.90,A,A*78

µb\®G5Ð,B8,N,12015.58828,E,0.072,,180925,,,A,V*1E

$GNVTG,,T,,M,0.072,N,0.133,K,A*39

$GNGGA,031131.00,3013.43878,N,12015.58828,E,1,12,0.77,9.4,M,7.5,M,,*76

$GNGSA,A,3,15,23,24,10,13,,,,,,,,1.47,0.77,1.26,1*06

$GNGSA,A,3,34,15,13,03,,,,,,,,,1.47,0.77,1.26,3*06

$GNGSA,A,3,08,13,16,21,22,02,03,,,,,,1.47,0.77,1.26,4*0C

$GNGSA,A,3,07,03,,,,,,,,,,,1.47,0.77,1.26,5*06

$GPGSV,3,1,09,05,,,27,10,09,308,30,13,20,049,30,15,49,035,37,1*5A

$GPGSV,3,2,09,23,46,329,38,24,76,147,41,41,36,237,42,42,54,167,44,1*6B

$GPGSV,3,3,09,50,54,167,39,1*53

$GPGSV,1,1,01,18,63,266,,0*5A

$GAGSV,1,1,04,03,61,012,41,13,29,318,38,15,73,252,43,34,36,164,41,7*7B

$GAGSV,1,1,01,16,08,081,,0*43

$GBGSV,2,1,08,02,40,239,37,03,55,200,36,08,59,003,38,13,54,343,42,1*7E

$GBGSV,2,2,08,16,48,187,37,21,45,316,42,22,49,042,39,60,,,32,1*49

$GQGSV,1,1,02,03,47,166,42,07,54,167,37,1*62

$GQGSV,1,1,01,02,11,151,,0*52

$GNGLL,3013.43878,N,12015.58828,E,031131.00,A,A*7F

µb\13.43879,N,12015.58828,E,0.021,,180925,,,A,V*18

$GNVTG,,T,,M,0.021,N,0.039,K,A*34

$GNGGA,031131.10,3013.43879,N,12015.58828,E,1,12,0.77,9.4,M,7.5,M,,*76

$GNGSA,A,3,15,23,24,10,13,,,,,,,,1.47,0.77,1.26,1*06

$GNGSA,A,3,34,15,13,03,,,,,,,,,1.47,0.77,1.26,3*06

$GNGSA,A,3,08,13,16,21,22,02,03,,,,,,1.47,0.77,1.26,4*0C

$GNGSA,A,3,07,03,,,,,,,,,,,1.47,0.77,1.26,5*06

$GPGSV,3,1,09,05,,,27,10,09,308,30,13,20,049,30,15,49,035,37,1*5A

$GPGSV,3,2,09,23,46,329,38,24,76,147,41,41,36,237,42,42,54,167,44,1*6B

$GPGSV,3,3,09,50,54,167,39,1*53

$GPGSV,1,1,01,18,63,266,,0*5A

$GAGSV,1,1,04,03,61,012,41,13,29,318,38,15,73,252,43,34,36,164,41,7*7B

$GAGSV,1,1,01,16,08,081,,0*43

$GBGSV,2,1,08,02,40,239,37,03,55,200,36,08,59,003,38,13,54,343,42,1*7E

$GBGSV,2,2,08,16,48,187,38,21,45,316,43,22,49,042,39,60,,,33,1*46

$GQGSV,1,1,02,03,47,166,42,07,54,167,37,1*62

$GQGSV,1,1,01,02,11,151,,0*52

$GNGLL,3013.43879,N,12015.58828,E,031131.10,A,A*7F

µb\20,A,3013.43879,N,12015.58829,E,0.127,,180925,,,A,V*1D

$GNVTG,,T,,M,0.127,N,0.234,K,A*3C

$GNGGA,031131.20,3013.43879,N,12015.58829,E,1,12,0.77,9.4,M,7.5,M,,*74

$GNGSA,A,3,15,23,24,10,13,,,,,,,,1.47,0.77,1.26,1*06

$GNGSA,A,3,34,15,13,03,,,,,,,,,1.47,0.77,1.26,3*06

$GNGSA,A,3,08,13,16,21,22,02,03,,,,,,1.47,0.77,1.26,4*0C

$GNGSA,A,3,07,03,,,,,,,,,,,1.47,0.77,1.26,5*06

$GPGSV,3,1,09,05,,,27,10,09,308,31,13,20,049,30,15,49,035,38,1*54

$GPGSV,3,2,09,23,46,329,39,24,76,147,42,41,36,237,42,42,54,167,45,1*68

$GPGSV,3,3,09,50,54,167,40,1*5D

$GPGSV,1,1,01,18,63,266,,0*5A

$GAGSV,1,1,04,03,61,012,41,13,29,318,38,15,73,252,43,34,36,164,41,7*7B

$GAGSV,1,1,01,16,08,081,,0*43

$GBGSV,2,1,08,02,40,239,37,03,55,200,36,08,59,003,38,13,54,343,42,1*7E

$GBGSV,2,2,08,16,48,187,38,21,45,316,44,22,49,042,39,60,,,33,1*41

$GQGSV,1,1,02,03,47,166,43,07,54,167,37,1*63

$GQGSV,1,1,01,02,11,151,,0*52

$GNGLL,3013.43879,N,12015.58829,E,031131.20,A,A*7D

µb\

$GNGGA,031131.30,3013.43879,N,12015.58829,E,1,12,0.77,9.4,M,7.5,M,,*75

$GNGSA,A,3,15,23,24,10,13,,,,,,,,1.47,0.77,1.26,1*06

$GNGSA,A,3,34,15,13,03,,,,,,,,,1.47,0.77,1.26,3*06

$GNGSA,A,3,08,13,16,21,22,02,03,,,,,,1.47,0.77,1.26,4*0C

$GNGSA,A,3,07,03,,,,,,,,,,,1.47,0.77,1.26,5*06

$GPGSV,3,1,09,05,,,27,10,09,308,31,13,20,049,30,15,49,035,38,1*54

$GPGSV,3,2,09,23,46,329,39,24,76,147,42,41,36,237,42,42,54,167,45,1*68

$GPGSV,3,3,09,50,54,167,40,1*5D

$GPGSV,1,1,01,18,63,266,,0*5A

$GAGSV,1,1,04,03,61,012,41,13,29,318,38,15,73,252,43,34,36,164,41,7*7B

$GAGSV,1,1,01,16,08,081,,0*43

$GBGSV,2,1,08,02,40,239,37,03,55,200,37,08,59,003,38,13,54,343,42,1*7F

$GBGSV,2,2,08,16,48,187,38,21,45,316,44,22,49,042,39,60,,,33,1*41

$GQGSV,1,1,02,03,47,166,43,07,54,167,37,1*63

$GQGSV,1,1,01,02,11,151,,0*52

$GNGLL,3013.43879,N,12015.58829,E,031131.30,A,A*7C

µb\9,N,12015.58829,E,0.016,,180925,,,A,V*18

$GNVTG,,T,,M,0.016,N,0.030,K,A*39

$GNGGA,031131.40,3013.43879,N,12015.58829,E,1,12,0.77,9.4,M,7.5,M,,*72

$GNGSA,A,3,15,23,24,10,13,,,,,,,,1.47,0.77,1.26,1*06

$GNGSA,A,3,34,15,13,03,,,,,,,,,1.47,0.77,1.26,3*06

$GNGSA,A,3,08,13,16,21,22,02,03,,,,,,1.47,0.77,1.26,4*0C

$GNGSA,A,3,07,03,,,,,,,,,,,1.47,0.77,1.26,5*06

$GPGSV,3,1,10,05,,,27,10,09,308,31,13,20,049,30,15,49,035,38,1*5C

$GPGSV,3,2,10,18,63,266,27,23,46,329,39,24,76,147,42,41,36,237,42,1*6D

$GPGSV,3,3,10,42,54,167,45,50,54,167,40,1*63

$GAGSV,1,1,04,03,61,012,41,13,29,318,38,15,73,252,42,34,36,164,41,7*7A

$GAGSV,1,1,01,16,08,081,,0*43

$GBGSV,2,1,08,02,40,239,37,03,55,200,37,08,59,003,38,13,54,343,42,1*7F

$GBGSV,2,2,08,16,48,187,38,21,45,316,44,22,49,042,39,60,,,33,1*41

$GQGSV,1,1,02,03,47,166,43,07,54,167,37,1*63

$GQGSV,1,1,01,02,11,151,,0*52

$GNGLL,3013.43879,N,12015.58829,E,031131.40,A,A*7B

µb\®G6Ð!B9,N,12015.58830,E,0.020,,180925,,,A,V*14

$GNVTG,,T,,M,0.020,N,0.037,K,A*3B

$GNGGA,031131.50,3013.43879,N,12015.58830,E,1,12,0.77,9.4,M,7.5,M,,*7B

$GNGSA,A,3,15,23,24,10,13,,,,,,,,1.47,0.77,1.26,1*06

$GNGSA,A,3,34,15,13,03,,,,,,,,,1.47,0.77,1.26,3*06

$GNGSA,A,3,08,13,16,21,22,02,03,,,,,,1.47,0.77,1.26,4*0C

$GNGSA,A,3,07,03,,,,,,,,,,,1.47,0.77,1.26,5*06

$GPGSV,3,1,10,05,,,26,10,09,308,30,13,20,049,30,15,49,035,38,1*5C

$GPGSV,3,2,10,18,63,266,27,23,46,329,39,24,76,147,42,41,36,237,42,1*6D

$GPGSV,3,3,10,42,54,167,45,50,54,167,40,1*63

$GAGSV,1,1,04,03,61,012,41,13,29,318,38,15,73,252,42,34,36,164,41,7*7A

$GAGSV,1,1,01,16,08,081,,0*43

$GBGSV,2,1,08,02,40,239,37,03,55,200,37,08,59,003,38,13,54,343,42,1*7F

$GBGSV,2,2,08,16,48,187,38,21,45,316,44,22,49,042,39,60,,,34,1*46

$GQGSV,1,1,02,03,47,166,43,07,54,167,37,1*63

$GQGSV,1,1,01,02,11,151,,0*52

$GNGLL,3013.43879,N,12015.58830,E,031131.50,A,A*72

µb\.034,K,A*33

$GNGGA,031131.60,3013.43879,N,12015.58830,E,1,12,0.77,9.4,M,7.5,M,,*78

$GNGSA,A,3,15,23,24,10,13,,,,,,,,1.47,0.77,1.26,1*06

$GNGSA,A,3,34,15,13,03,,,,,,,,,1.47,0.77,1.26,3*06

$GNGSA,A,3,08,13,16,21,22,02,03,,,,,,1.47,0.77,1.26,4*0C

$GNGSA,A,3,07,03,,,,,,,,,,,1.47,0.77,1.26,5*06

$GPGSV,3,1,10,05,,,26,10,09,308,30,13,20,049,30,15,49,035,38,1*5C

$GPGSV,3,2,10,18,63,266,27,23,46,329,39,24,76,147,42,41,36,237,42,1*6D

$GPGSV,3,3,10,42,54,167,45,50,54,167,40,1*63

$GAGSV,1,1,04,03,61,012,41,13,29,318,39,15,73,252,43,34,36,164,41,7*7A

$GAGSV,1,1,01,16,08,081,,0*43

$GBGSV,2,1,08,02,40,239,37,03,55,200,37,08,59,003,38,13,54,343,42,1*7F

$GBGSV,2,2,08,16,48,187,38,21,45,316,44,22,49,042,39,60,,,34,1*46

$GQGSV,1,1,02,03,47,166,43,07,54,167,37,1*63

$GQGSV,1,1,01,02,11,151,,0*52

$GNGLL,3013.43879,N,12015.58830,E,031131.60,A,A*71

µb\.147,K,A*31

$GNGGA,031131.70,3013.43879,N,12015.58830,E,1,12,0.77,9.4,M,7.5,M,,*79

$GNGSA,A,3,15,23,24,10,13,,,,,,,,1.47,0.77,1.26,1*06

$GNGSA,A,3,34,15,13,03,,,,,,,,,1.47,0.77,1.26,3*06

$GNGSA,A,3,08,13,16,21,22,02,03,,,,,,1.47,0.77,1.26,4*0C

$GNGSA,A,3,07,03,,,,,,,,,,,1.47,0.77,1.26,5*06

$GPGSV,3,1,10,05,,,26,10,09,308,30,13,20,049,30,15,49,035,39,1*5D

$GPGSV,3,2,10,18,63,266,27,23,46,329,39,24,76,147,42,41,36,237,42,1*6D

$GPGSV,3,3,10,42,54,167,45,50,54,167,40,1*63

$GAGSV,1,1,04,03,61,012,41,13,29,318,39,15,73,252,43,34,36,164,41,7*7A

$GAGSV,1,1,01,16,08,081,,0*43

$GBGSV,2,1,08,02,40,239,37,03,55,200,37,08,59,003,38,13,54,343,42,1*7F

$GBGSV,2,2,08,16,48,187,38,21,45,316,44,22,49,042,39,60,,,34,1*46

$GQGSV,1,1,02,03,47,166,43,07,54,167,36,1*62

$GQGSV,1,1,01,02,11,151,,0*52

$GNGLL,3013.43879,N,12015.58830,E,031131.70,A,A*70

µb\9,N,12015.58831,E,0.078,,180925,,,A,V*15

$GNVTG,,T,,M,0.078,N,0.145,K,A*32

$GNGGA,031131.80,3013.43879,N,12015.58831,E,1,12,0.77,9.4,M,7.5,M,,*77

$GNGSA,A,3,15,23,24,10,13,,,,,,,,1.47,0.77,1.26,1*06

$GNGSA,A,3,34,15,13,03,,,,,,,,,1.47,0.77,1.26,3*06

$GNGSA,A,3,08,13,16,21,22,02,03,,,,,,1.47,0.77,1.26,4*0C

$GNGSA,A,3,07,03,,,,,,,,,,,1.47,0.77,1.26,5*06

$GPGSV,3,1,10,05,,,26,10,09,308,30,13,20,049,30,15,49,035,39,1*5D

$GPGSV,3,2,10,18,63,266,27,23,46,329,40,24,76,147,42,41,36,237,42,1*63

$GPGSV,3,3,10,42,54,167,45,50,54,167,40,1*63

$GAGSV,1,1,04,03,61,012,41,13,29,318,39,15,73,252,43,34,36,164,41,7*7A

$GAGSV,1,1,01,16,08,081,,0*43

$GBGSV,2,1,08,02,40,239,37,03,55,200,36,08,59,003,37,13,54,343,42,1*71

$GBGSV,2,2,08,16,48,187,37,21,45,316,43,22,49,042,39,60,,,33,1*49

$GQGSV,1,1,02,03,47,166,43,07,54,167,36,1*62

$GQGSV,1,1,01,02,11,151,,0*52

$GNGLL,3013.43879,N,12015.58831,E,031131.80,A,A*7E

µb\.078,K,A*34

$GNGGA,031131.90,3013.43879,N,12015.58831,E,1,12,0.77,9.4,M,7.5,M,,*76

$GNGSA,A,3,15,23,24,10,13,,,,,,,,1.47,0.77,1.26,1*06

$GNGSA,A,3,34,15,13,03,,,,,,,,,1.47,0.77,1.26,3*06

$GNGSA,A,3,08,13,16,21,22,02,03,,,,,,1.47,0.77,1.26,4*0C

$GNGSA,A,3,07,03,,,,,,,,,,,1.47,0.77,1.26,5*06

$GPGSV,3,1,10,05,,,25,10,09,308,29,13,20,049,30,15,49,035,39,1*56

$GPGSV,3,2,10,18,63,266,27,23,46,329,40,24,76,147,42,41,36,237,42,1*63

$GPGSV,3,3,10,42,54,167,45,50,54,167,40,1*63

$GAGSV,1,1,04,03,61,012,41,13,29,318,39,15,73,252,43,34,36,164,41,7*7A

$GAGSV,1,1,01,16,08,081,,0*43

$GBGSV,2,1,08,02,40,239,37,03,55,200,37,08,59,003,37,13,54,343,42,1*70

$GBGSV,2,2,08,16,48,187,38,21,45,316,43,22,49,042,39,60,,,33,1*46

$GQGSV,1,1,02,03,47,166,42,07,54,167,36,1*63

$GQGSV,1,1,01,02,11,151,,0*52

$GNGLL,3013.43879,N,12015.58831,E,031131.90,A,A*7F

µb\®G7ÐB9,N,12015.58831,E,0.010,,180925,,,A,V*10

$GNVTG,,T,,M,0.010,N,0.019,K,A*34

$GNGGA,031132.00,3013.43879,N,12015.58831,E,1,12,0.77,9.4,M,7.5,M,,*7C

$GNGSA,A,3,15,23,24,10,13,,,,,,,,1.47,0.77,1.26,1*06

$GNGSA,A,3,34,15,13,03,,,,,,,,,1.47,0.77,1.26,3*06

$GNGSA,A,3,08,13,16,21,22,02,03,,,,,,1.47,0.77,1.26,4*0C

$GNGSA,A,3,07,03,,,,,,,,,,,1.47,0.77,1.26,5*06

$GPGSV,3,1,10,05,,,25,10,09,308,29,13,20,049,30,15,49,035,39,1*56

$GPGSV,3,2,10,18,63,266,27,23,46,329,40,24,76,147,42,41,36,237,42,1*63

$GPGSV,3,3,10,42,54,167,45,50,54,167,40,1*63

$GAGSV,1,1,04,03,61,012,41,13,29,318,39,15,73,252,42,34,36,164,41,7*7B

$GAGSV,1,1,01,16,08,081,,0*43

$GBGSV,2,1,08,02,40,239,37,03,55,200,37,08,59,003,37,13,54,343,41,1*73

$GBGSV,2,2,08,16,48,187,38,21,45,316,44,22,49,042,39,60,,,34,1*46

$GQGSV,1,1,02,03,47,166,42,07,54,167,36,1*63

$GQGSV,1,1,01,02,11,151,,0*52

$GNGLL,3013.43879,N,12015.58831,E,031132.00,A,A*75

µb\	 ÷ë8831,E,0.027,,180925,,,A,V*15

$GNVTG,,T,,M,0.027,N,0.050,K,A*3D

$GNGGA,031132.10,3013.43879,N,12015.58831,E,1,12,0.77,9.4,M,7.5,M,,*7D

$GNGSA,A,3,15,23,24,10,13,,,,,,,,1.47,0.77,1.26,1*06

$GNGSA,A,3,34,15,13,03,,,,,,,,,1.47,0.77,1.26,3*06

$GNGSA,A,3,08,13,16,21,22,02,03,,,,,,1.47,0.77,1.26,4*0C

$GNGSA,A,3,07,03,,,,,,,,,,,1.47,0.77,1.26,5*06

$GPGSV,3,1,10,05,,,25,10,09,308,29,13,20,049,30,15,49,035,39,1*56

$GPGSV,3,2,10,18,63,266,27,23,46,329,40,24,76,147,42,41,36,237,42,1*63

$GPGSV,3,3,10,42,54,167,45,50,54,167,40,1*63

$GAGSV,1,1,04,03,61,012,41,13,29,318,39,15,73,252,42,34,36,164,41,7*7B

$GAGSV,1,1,01,16,08,081,,0*43

$GBGSV,2,1,08,02,40,239,37,03,55,200,37,08,59,003,38,13,54,343,42,1*7F

$GBGSV,2,2,08,16,48,187,38,21,45,316,42,22,49,042,39,60,,,34,1*40

$GQGSV,1,1,02,03,47,166,42,07,54,167,37,1*62

$GQGSV,1,1,01,02,11,151,,0*52

$GNGLL,3013.43879,N,12015.58831,E,031132.10,A,A*74

µb\Ð
èú¤0®G7ÐB1,,180925,,,A,V*17

$GNVTG,,T,,M,0.031,N,0.058,K,A*32

$GNGGA,031132.20,3013.43880,N,12015.58831,E,1,12,0.77,9.4,M,7.5,M,,*78

$GNGSA,A,3,15,23,24,10,13,,,,,,,,1.47,0.77,1.26,1*06

$GNGSA,A,3,34,15,13,03,,,,,,,,,1.47,0.77,1.26,3*06

$GNGSA,A,3,08,13,16,21,22,02,03,,,,,,1.47,0.77,1.26,4*0C

$GNGSA,A,3,07,03,,,,,,,,,,,1.47,0.77,1.26,5*06

$GPGSV,3,1,10,05,,,25,10,09,308,29,13,20,049,30,15,49,035,39,1*56

$GPGSV,3,2,10,18,63,266,27,23,46,329,40,24,76,147,42,41,36,237,42,1*63

$GPGSV,3,3,10,42,54,167,45,50,54,167,40,1*63

$GAGSV,1,1,04,03,61,012,41,13,29,318,39,15,73,252,42,34,36,164,41,7*7B

$GAGSV,1,1,01,16,08,081,,0*43

$GBGSV,2,1,08,02,40,239,37,03,55,200,36,08,59,003,38,13,54,343,42,1*7E

$GBGSV,2,2,08,16,48,187,37,21,45,316,42,22,49,042,39,60,,,33,1*48

$GQGSV,1,1,02,03,47,166,42,07,54,167,36,1*63

$GQGSV,1,1,01,02,11,151,,0*52

$GNGLL,3013.43880,N,12015.58831,E,031132.20,A,A*71

µb\G7ÐB,N,12015.58832,E,0.030,,180925,,,A,V*14

$GNVTG,,T,,M,0.030,N,0.056,K,A*3D

$GNGGA,031132.30,3013.43880,N,12015.58832,E,1,12,0.77,9.4,M,7.5,M,,*7A

$GNGSA,A,3,15,23,24,10,13,,,,,,,,1.47,0.77,1.26,1*06

$GNGSA,A,3,34,15,13,03,,,,,,,,,1.47,0.77,1.26,3*06

$GNGSA,A,3,08,13,16,21,22,02,03,,,,,,1.47,0.77,1.26,4*0C

$GNGSA,A,3,07,03,,,,,,,,,,,1.47,0.77,1.26,5*06

$GPGSV,3,1,10,05,,,24,10,09,308,29,13,20,049,30,15,49,035,39,1*57

$GPGSV,3,2,10,18,63,266,27,23,46,329,40,24,76,147,42,41,36,237,42,1*63

$GPGSV,3,3,10,42,54,167,45,50,54,167,40,1*63

$GAGSV,1,1,04,03,61,012,41,13,29,318,39,15,73,252,42,34,36,164,41,7*7B

$GAGSV,1,1,01,16,08,081,,0*43

$GBGSV,2,1,08,02,40,239,36,03,55,200,36,08,59,003,37,13,54,343,41,1*73

$GBGSV,2,2,08,16,48,187,37,21,45,316,42,22,49,042,39,60,,,33,1*48

$GQGSV,1,1,02,03,47,166,42,07,54,167,37,1*62

$GQGSV,1,1,01,02,11,151,,0*52

$GNGLL,3013.43880,N,12015.58832,E,031132.30,A,A*73

µb\13.43880,N,12015.58832,E,1,12,0.77,9.4,M,7.5,M,,*7D

$GNGSA,A,3,15,23,24,10,13,,,,,,,,1.47,0.77,1.26,1*06

$GNGSA,A,3,34,15,13,03,,,,,,,,,1.47,0.77,1.26,3*06

$GNGSA,A,3,08,13,16,21,22,02,03,,,,,,1.47,0.77,1.26,4*0C

$GNGSA,A,3,07,03,,,,,,,,,,,1.47,0.77,1.26,5*06

$GPGSV,3,1,10,05,,,24,10,09,308,29,13,20,049,30,15,49,035,39,1*57

$GPGSV,3,2,10,18,63,266,27,23,46,329,40,24,76,147,42,41,36,237,42,1*63

$GPGSV,3,3,10,42,54,167,45,50,54,167,40,1*63

$GAGSV,1,1,04,03,61,012,41,13,29,318,39,15,73,252,42,34,36,164,41,7*7B

$GAGSV,1,1,01,16,08,081,,0*43

$GBGSV,2,1,08,02,40,239,36,03,55,200,36,08,59,003,37,13,54,343,41,1*73

$GBGSV,2,2,08,16,48,187,37,21,45,316,42,22,49,042,39,60,,,33,1*48

$GQGSV,1,1,02,03,47,166,43,07,54,167,37,1*63

$GQGSV,1,1,01,02,11,151,,0*52

$GNGLL,3013.43880,N,12015.58832,E,031132.40,A,A*74

µb\13.43880,N,12015.58832,E,1,12,0.77,9.4,M,7.5,M,,*7C

$GNGSA,A,3,15,23,24,10,13,,,,,,,,1.47,0.77,1.26,1*06

$GNGSA,A,3,34,15,13,03,,,,,,,,,1.47,0.77,1.26,3*06

$GNGSA,A,3,08,13,16,21,22,02,03,,,,,,1.47,0.77,1.26,4*0C

$GNGSA,A,3,07,03,,,,,,,,,,,1.47,0.77,1.26,5*06

$GPGSV,3,1,10,05,,,24,10,09,308,29,13,20,049,30,15,49,035,39,1*57

$GPGSV,3,2,10,18,63,266,27,23,46,329,40,24,76,147,42,41,36,237,42,1*63

$GPGSV,3,3,10,42,54,167,45,50,54,167,40,1*63

$GAGSV,1,1,04,03,61,012,41,13,29,318,39,15,73,252,42,34,36,164,41,7*7B

$GAGSV,1,1,01,16,08,081,,0*43

$GBGSV,2,1,08,02,40,239,36,03,55,200,36,08,59,003,37,13,54,343,41,1*73

$GBGSV,2,2,08,16,48,187,37,21,45,316,42,22,49,042,39,60,,,33,1*48

$GQGSV,1,1,02,03,47,166,43,07,54,167,37,1*63

$GQGSV,1,1,01,02,11,151,,0*52

$GNGLL,3013.43880,N,12015.58832,E,031132.50,A,A*75

µb\13.43880,N,12015.58833,E,1,12,0.77,9.4,M,7.5,M,,*7E

$GNGSA,A,3,15,23,24,10,13,,,,,,,,1.47,0.77,1.26,1*06

$GNGSA,A,3,34,15,13,03,,,,,,,,,1.47,0.77,1.26,3*06

$GNGSA,A,3,08,13,16,21,22,02,03,,,,,,1.47,0.77,1.26,4*0C

$GNGSA,A,3,07,03,,,,,,,,,,,1.47,0.77,1.26,5*06

$GPGSV,3,1,10,05,,,24,10,09,308,29,13,20,049,30,15,49,035,38,1*56

$GPGSV,3,2,10,18,63,266,27,23,46,329,40,24,76,147,42,41,36,237,42,1*63

$GPGSV,3,3,10,42,54,167,45,50,54,167,40,1*63

$GAGSV,1,1,04,03,61,012,41,13,29,318,39,15,73,252,42,34,36,164,41,7*7B

$GAGSV,1,1,01,16,08,081,,0*43

$GBGSV,2,1,08,02,40,239,37,03,55,200,37,08,59,003,38,13,54,343,42,1*7F

$GBGSV,2,2,08,16,48,187,38,21,45,316,44,22,49,042,39,60,,,34,1*46

$GQGSV,1,1,02,03,47,166,43,07,54,167,36,1*62

$GQGSV,1,1,01,02,11,151,,0*52

$GNGLL,3013.43880,N,12015.58833,E,031132.60,A,A*77

µb\13.43880,N,12015.58833,E,1,12,0.77,9.4,M,7.5,M,,*7F

$GNGSA,A,3,15,23,24,10,13,,,,,,,,1.47,0.77,1.26,1*06

$GNGSA,A,3,34,15,13,03,,,,,,,,,1.47,0.77,1.26,3*06

$GNGSA,A,3,08,13,16,21,22,02,03,,,,,,1.47,0.77,1.26,4*0C

$GNGSA,A,3,07,03,,,,,,,,,,,1.47,0.77,1.26,5*06

$GPGSV,3,1,10,05,,,23,10,09,308,29,13,20,049,30,15,49,035,38,1*51

$GPGSV,3,2,10,18,63,266,27,23,46,329,40,24,76,147,42,41,36,237,42,1*63

$GPGSV,3,3,10,42,54,167,45,50,54,167,40,1*63

$GAGSV,1,1,04,03,61,012,43,13,29,318,39,15,73,252,42,34,36,164,41,7*79

$GAGSV,1,1,01,16,08,081,,0*43

$GBGSV,2,1,08,02,40,239,36,03,55,200,36,08,59,003,37,13,54,343,41,1*73

$GBGSV,2,2,08,16,48,187,37,21,45,316,43,22,49,042,38,60,,,33,1*48

$GQGSV,1,1,02,03,47,166,43,07,54,167,37,1*63

$GQGSV,1,1,01,02,11,151,,0*52

$GNGLL,3013.43880,N,12015.58833,E,031132.70,A,A*76

µb\.154,K,A*36

$GNGGA,031132.80,3013.43880,N,12015.58833,E,1,12,0.77,9.4,M,7.5,M,,*70

$GNGSA,A,3,15,23,24,10,13,,,,,,,,1.47,0.77,1.26,1*06

$GNGSA,A,3,34,15,13,03,,,,,,,,,1.47,0.77,1.26,3*06

$GNGSA,A,3,08,13,16,21,22,02,03,,,,,,1.47,0.77,1.26,4*0C

$GNGSA,A,3,07,03,,,,,,,,,,,1.47,0.77,1.26,5*06

$GPGSV,3,1,10,05,,,23,10,09,308,29,13,20,049,30,15,49,035,38,1*51

$GPGSV,3,2,10,18,63,266,27,23,46,329,40,24,76,147,42,41,36,237,42,1*63

$GPGSV,3,3,10,42,54,167,44,50,54,167,40,1*62

$GAGSV,1,1,04,03,61,012,43,13,29,318,39,15,73,252,42,34,36,164,42,7*7A

$GAGSV,1,1,01,16,08,081,,0*43

$GBGSV,2,1,08,02,40,239,36,03,55,200,36,08,59,003,38,13,54,343,41,1*7C

$GBGSV,2,2,08,16,48,187,37,21,45,316,43,22,49,042,38,60,,,34,1*4F

$GQGSV,1,1,02,03,47,166,43,07,54,167,36,1*62

$GQGSV,1,1,01,02,11,151,,0*52

$GNGLL,3013.43880,N,12015.58833,E,031132.80,A,A*79

µb\®G8Ð	B0,N,12015.58834,E,0.060,,180925,,,A,V*1D

$GNVTG,,T,,M,0.060,N,0.110,K,A*3B

$GNGGA,031132.90,3013.43880,N,12015.58834,E,1,12,0.77,9.4,M,7.5,M,,*76

$GNGSA,A,3,15,23,24,10,13,,,,,,,,1.47,0.77,1.26,1*06

$GNGSA,A,3,34,15,13,03,,,,,,,,,1.47,0.77,1.26,3*06

$GNGSA,A,3,08,13,16,21,22,02,03,,,,,,1.47,0.77,1.26,4*0C

$GNGSA,A,3,07,03,,,,,,,,,,,1.47,0.77,1.26,5*06

$GPGSV,3,1,10,05,,,22,10,09,308,29,13,20,049,30,15,49,035,38,1*50

$GPGSV,3,2,10,18,63,266,27,23,46,329,40,24,76,147,42,41,36,237,42,1*63

$GPGSV,3,3,10,42,54,167,44,50,54,167,40,1*62

$GAGSV,1,1,04,03,61,012,43,13,29,318,38,15,73,252,42,34,36,164,42,7*7B

$GAGSV,1,1,01,16,08,081,,0*43

$GBGSV,2,1,08,02,40,239,35,03,55,200,36,08,59,003,38,13,54,343,41,1*7F

$GBGSV,2,2,08,16,48,187,37,21,45,316,43,22,49,042,39,60,,,34,1*4E

$GQGSV,1,1,02,03,47,166,42,07,54,167,37,1*62

$GQGSV,1,1,01,02,11,151,,0*52

$GNGLL,3013.43880,N,12015.58834,E,031132.90,A,A*7F

µb\®G9ÐB0,N,12015.58834,E,0.059,,180925,,,A,V*1F

$GNVTG,,T,,M,0.059,N,0.110,K,A*31

$GNGGA,031133.00,3013.43880,N,12015.58834,E,1,12,0.77,9.4,M,7.5,M,,*7E

$GNGSA,A,3,15,23,24,10,13,,,,,,,,1.47,0.77,1.26,1*06

$GNGSA,A,3,34,15,13,03,,,,,,,,,1.47,0.77,1.26,3*06

$GNGSA,A,3,08,13,16,21,22,02,03,,,,,,1.47,0.77,1.26,4*0C

$GNGSA,A,3,07,03,,,,,,,,,,,1.47,0.77,1.26,5*06

$GPGSV,3,1,10,05,,,21,10,09,308,29,13,20,049,30,15,49,035,38,1*53

$GPGSV,3,2,10,18,63,266,26,23,46,329,41,24,76,147,42,41,36,237,42,1*63

$GPGSV,3,3,10,42,54,167,44,50,54,167,40,1*62

$GAGSV,1,1,04,03,61,012,43,13,29,318,38,15,73,252,42,34,36,164,42,7*7B

$GAGSV,1,1,01,16,08,081,,0*43

$GBGSV,2,1,08,02,40,239,35,03,55,200,36,08,59,003,38,13,54,343,41,1*7F

$GBGSV,2,2,08,16,48,187,37,21,45,316,43,22,49,042,38,60,,,34,1*4F

$GQGSV,1,1,02,03,47,166,42,07,54,167,37,1*62

$GQGSV,1,1,01,02,11,151,,0*52

$GNGLL,3013.43880,N,12015.58834,E,031133.00,A,A*77

µb\	!÷ë8834,E,0.023,,180925,,,A,V*13

$GNVTG,,T,,M,0.023,N,0.043,K,A*3B

$GNGGA,031133.10,3013.43880,N,12015.58834,E,1,12,0.77,9.4,M,7.5,M,,*7F

$GNGSA,A,3,15,23,24,10,13,,,,,,,,1.47,0.77,1.26,1*06

$GNGSA,A,3,34,15,13,03,,,,,,,,,1.47,0.77,1.26,3*06

$GNGSA,A,3,08,13,16,21,22,02,03,,,,,,1.47,0.77,1.26,4*0C

$GNGSA,A,3,07,03,,,,,,,,,,,1.47,0.77,1.26,5*06

$GPGSV,3,1,10,05,,,21,10,09,308,29,13,20,049,30,15,49,035,38,1*53

$GPGSV,3,2,10,18,63,266,26,23,46,329,41,24,76,147,42,41,36,237,42,1*63

$GPGSV,3,3,10,42,54,167,44,50,54,167,40,1*62

$GAGSV,1,1,04,03,61,012,43,13,29,318,38,15,73,252,42,34,36,164,42,7*7B

$GAGSV,1,1,01,16,08,081,,0*43

$GBGSV,2,1,08,02,40,239,36,03,55,200,36,08,59,003,39,13,54,343,42,1*7E

$GBGSV,2,2,08,16,48,187,38,21,45,316,43,22,49,042,39,60,,,34,1*41

$GQGSV,1,1,02,03,47,166,42,07,54,167,37,1*62

$GQGSV,1,1,01,02,11,151,,0*52

$GNGLL,3013.43880,N,12015.58834,E,031133.10,A,A*76

µb\èúª0®G8ÐöA2,,180925,,,A,V*17

$GNVTG,,T,,M,0.052,N,0.096,K,A*35

$GNGGA,031133.20,3013.43880,N,12015.58835,E,1,12,0.77,9.4,M,7.5,M,,*7D

$GNGSA,A,3,15,23,24,10,13,,,,,,,,1.47,0.77,1.26,1*06

$GNGSA,A,3,34,15,13,03,,,,,,,,,1.47,0.77,1.26,3*06

$GNGSA,A,3,08,13,16,21,22,02,03,,,,,,1.47,0.77,1.26,4*0C

$GNGSA,A,3,07,03,,,,,,,,,,,1.47,0.77,1.26,5*06

$GPGSV,3,1,10,05,,,21,10,09,308,28,13,20,049,31,15,49,035,38,1*53

$GPGSV,3,2,10,18,63,266,26,23,46,329,41,24,76,147,42,41,36,237,42,1*63

$GPGSV,3,3,10,42,54,167,44,50,54,167,40,1*62

$GAGSV,1,1,04,03,61,012,43,13,29,318,38,15,73,252,42,34,36,164,41,7*78

$GAGSV,1,1,01,16,08,081,,0*43

$GBGSV,2,1,08,02,40,239,36,03,55,200,36,08,59,003,38,13,54,343,41,1*7C

$GBGSV,2,2,08,16,48,187,38,21,45,316,43,22,49,042,38,60,,,34,1*40

$GQGSV,1,1,02,03,47,166,43,07,54,167,37,1*63

$GQGSV,1,1,01,02,11,151,,0*52

$GNGLL,3013.43880,N,12015.58835,E,031133.20,A,A*74

µb\G9ÐôA,N,12015.58835,E,0.040,,180925,,,A,V*15

$GNVTG,,T,,M,0.040,N,0.074,K,A*3A

$GNGGA,031133.30,3013.43880,N,12015.58835,E,1,12,0.75,9.4,M,7.5,M,,*7E

$GNGSA,A,3,15,23,24,10,13,18,,,,,,,1.43,0.75,1.22,1*0D

$GNGSA,A,3,34,15,13,03,,,,,,,,,1.43,0.75,1.22,3*04

$GNGSA,A,3,08,13,16,21,22,02,03,,,,,,1.43,0.75,1.22,4*0E

$GNGSA,A,3,07,03,,,,,,,,,,,1.43,0.75,1.22,5*04

$GPGSV,3,1,10,05,,,21,10,09,308,28,13,20,049,31,15,49,035,38,1*53

$GPGSV,3,2,10,18,63,266,26,23,46,329,41,24,76,147,42,41,36,237,42,1*63

$GPGSV,3,3,10,42,54,167,44,50,54,167,40,1*62

$GAGSV,1,1,04,03,61,012,43,13,29,318,38,15,73,252,42,34,36,164,41,7*78

$GAGSV,1,1,01,16,08,081,,0*43

$GBGSV,2,1,08,02,40,239,36,03,55,200,36,08,59,003,38,13,54,343,41,1*7C

$GBGSV,2,2,08,16,48,187,38,21,45,316,43,22,49,042,38,60,,,34,1*40

$GQGSV,1,1,02,03,47,166,43,07,54,167,37,1*63

$GQGSV,1,1,01,02,11,151,,0*52

$GNGLL,3013.43880,N,12015.58835,E,031133.30,A,A*75

µb\®G9ÐûA0,N,12015.58835,E,0.043,,180925,,,A,V*11

$GNVTG,,T,,M,0.043,N,0.079,K,A*34

$GNGGA,031133.40,3013.43880,N,12015.58835,E,1,12,0.77,9.4,M,7.5,M,,*7B

$GNGSA,A,3,15,23,24,10,13,,,,,,,,1.47,0.77,1.26,1*06

$GNGSA,A,3,34,15,13,03,,,,,,,,,1.47,0.77,1.26,3*06

$GNGSA,A,3,08,13,16,21,22,02,03,,,,,,1.47,0.77,1.26,4*0C

$GNGSA,A,3,07,03,,,,,,,,,,,1.47,0.77,1.26,5*06

$GPGSV,3,1,10,05,,,21,10,09,308,28,13,20,049,31,15,49,035,38,1*53

$GPGSV,3,2,10,18,63,266,26,23,46,329,41,24,76,147,42,41,36,237,42,1*63

$GPGSV,3,3,10,42,54,167,44,50,54,167,40,1*62

$GAGSV,1,1,04,03,61,012,43,13,29,318,38,15,73,252,42,34,36,164,41,7*78

$GAGSV,1,1,01,16,08,081,,0*43

$GBGSV,2,1,08,02,40,239,36,03,55,200,36,08,59,003,38,13,54,343,41,1*7C

$GBGSV,2,2,08,16,48,187,38,21,45,316,43,22,49,042,39,60,,,34,1*41

$GQGSV,1,1,02,03,47,166,43,07,54,167,37,1*63

$GQGSV,1,1,01,02,11,151,,0*52

$GNGLL,3013.43880,N,12015.58835,E,031133.40,A,A*72

µb\®G9ÐçA0,N,12015.58836,E,0.020,,180925,,,A,V*16

$GNVTG,,T,,M,0.020,N,0.037,K,A*3B

$GNGGA,031133.50,3013.43880,N,12015.58836,E,1,12,0.77,9.4,M,7.5,M,,*79

$GNGSA,A,3,15,23,24,10,13,,,,,,,,1.47,0.77,1.26,1*06

$GNGSA,A,3,34,15,13,03,,,,,,,,,1.47,0.77,1.26,3*06

$GNGSA,A,3,08,13,16,21,22,02,03,,,,,,1.47,0.77,1.26,4*0C

$GNGSA,A,3,07,03,,,,,,,,,,,1.47,0.77,1.26,5*06

$GPGSV,3,1,10,05,,,20,10,09,308,28,13,20,049,31,15,49,035,38,1*52

$GPGSV,3,2,10,18,63,266,26,23,46,329,41,24,76,147,42,41,36,237,42,1*63

$GPGSV,3,3,10,42,54,167,44,50,54,167,40,1*62

$GAGSV,1,1,04,03,61,012,43,13,29,318,38,15,73,252,42,34,36,164,41,7*78

$GAGSV,1,1,01,16,08,081,,0*43

$GBGSV,2,1,08,02,40,239,37,03,55,200,37,08,59,003,39,13,54,343,42,1*7E

$GBGSV,2,2,08,16,48,187,38,21,45,316,44,22,49,042,39,60,,,34,1*46

$GQGSV,1,1,02,03,47,166,43,07,54,167,37,1*63

$GQGSV,1,1,01,02,11,151,,0*52

$GNGLL,3013.43880,N,12015.58836,E,031133.50,A,A*70

µb\®G9ÐàA1,N,12015.58836,E,0.036,,180925,,,A,V*13

$GNVTG,,T,,M,0.036,N,0.068,K,A*36

$GNGGA,031133.60,3013.43881,N,12015.58836,E,1,12,0.75,9.4,M,7.5,M,,*79

$GNGSA,A,3,15,23,24,10,13,18,,,,,,,1.43,0.75,1.22,1*0D

$GNGSA,A,3,34,15,13,03,,,,,,,,,1.43,0.75,1.22,3*04

$GNGSA,A,3,08,13,16,21,22,02,03,,,,,,1.43,0.75,1.22,4*0E

$GNGSA,A,3,07,03,,,,,,,,,,,1.43,0.75,1.22,5*04

$GPGSV,3,1,10,05,,,20,10,09,308,28,13,20,049,31,15,49,035,38,1*52

$GPGSV,3,2,10,18,63,266,26,23,46,329,41,24,76,147,42,41,36,237,42,1*63

$GPGSV,3,3,10,42,54,167,44,50,54,167,40,1*62

$GAGSV,1,1,04,03,61,012,43,13,29,318,38,15,73,252,42,34,36,164,41,7*78

$GAGSV,1,1,01,16,08,081,,0*43

$GBGSV,2,1,08,02,40,239,37,03,55,200,37,08,59,003,39,13,54,343,42,1*7E

$GBGSV,2,2,08,16,48,187,38,21,45,316,44,22,49,042,39,60,,,34,1*46

$GQGSV,1,1,02,03,47,166,43,07,54,167,37,1*63

$GQGSV,1,1,01,02,11,151,,0*52

$GNGLL,3013.43881,N,12015.58836,E,031133.60,A,A*72

µb\®G9ÐÏA1,N,12015.58836,E,0.053,,180925,,,A,V*11

$GNVTG,,T,,M,0.053,N,0.097,K,A*35

$GNGGA,031133.70,3013.43881,N,12015.58836,E,1,12,0.75,9.3,M,7.5,M,,*7F

$GNGSA,A,3,15,23,24,10,13,18,,,,,,,1.43,0.75,1.22,1*0D

$GNGSA,A,3,34,15,13,03,,,,,,,,,1.43,0.75,1.22,3*04

$GNGSA,A,3,08,13,16,21,22,02,03,,,,,,1.43,0.75,1.22,4*0E

$GNGSA,A,3,07,03,,,,,,,,,,,1.43,0.75,1.22,5*04

$GPGSV,3,1,10,05,,,20,10,09,308,28,13,20,049,31,15,49,035,38,1*52

$GPGSV,3,2,10,18,63,266,26,23,46,329,41,24,76,147,42,41,36,237,42,1*63

$GPGSV,3,3,10,42,54,167,44,50,54,167,40,1*62

$GAGSV,1,1,04,03,61,012,43,13,29,318,38,15,73,252,43,34,36,164,41,7*79

$GAGSV,1,1,01,16,08,081,,0*43

$GBGSV,2,1,08,02,40,239,37,03,55,200,36,08,59,003,39,13,54,343,42,1*7F

$GBGSV,2,2,08,16,48,187,38,21,45,316,43,22,49,042,39,60,,,33,1*46

$GQGSV,1,1,02,03,47,166,43,07,54,167,37,1*63

$GQGSV,1,1,01,02,11,151,,0*52

$GNGLL,3013.43881,N,12015.58836,E,031133.70,A,A*73

µb\é	!÷ë.58837,E,0.060,,180925,,,A,V*1F

$GNVTG,,T,,M,0.060,N,0.112,K,A*39

$GNGGA,031133.80,3013.43881,N,12015.58837,E,1,12,0.75,9.3,M,7.5,M,,*71

$GNGSA,A,3,15,23,24,10,13,18,,,,,,,1.43,0.75,1.22,1*0D

$GNGSA,A,3,34,15,13,03,,,,,,,,,1.43,0.75,1.22,3*04

$GNGSA,A,3,08,13,16,21,22,02,03,,,,,,1.43,0.75,1.22,4*0E

$GNGSA,A,3,07,03,,,,,,,,,,,1.43,0.75,1.22,5*04

$GPGSV,3,1,10,05,,,19,10,09,308,28,13,20,049,31,15,49,035,38,1*58

$GPGSV,3,2,10,18,63,266,26,23,46,329,41,24,76,147,42,41,36,237,43,1*62

$GPGSV,3,3,10,42,54,167,44,50,54,167,40,1*62

$GAGSV,1,1,04,03,61,012,43,13,29,318,38,15,73,252,43,34,36,164,41,7*79

$GAGSV,1,1,01,16,08,081,,0*43

$GBGSV,2,1,08,02,40,239,36,03,55,200,36,08,59,003,39,13,54,343,41,1*7D

$GBGSV,2,2,08,16,48,187,38,21,45,316,43,22,49,042,39,60,,,34,1*41

$GQGSV,1,1,02,03,47,166,43,07,54,167,37,1*63

$GQGSV,1,1,01,02,11,151,,0*52

$GNGLL,3013.43881,N,12015.58837,E,031133.80,A,A*7D

µb\®G9ÐÖA1,N,12015.58837,E,0.046,,180925,,,A,V*1A

$GNVTG,,T,,M,0.046,N,0.085,K,A*32

$GNGGA,031133.90,3013.43881,N,12015.58837,E,1,12,0.75,9.3,M,7.5,M,,*70

$GNGSA,A,3,15,23,24,10,13,18,,,,,,,1.43,0.75,1.22,1*0D

$GNGSA,A,3,34,15,13,03,,,,,,,,,1.43,0.75,1.22,3*04

$GNGSA,A,3,08,13,16,21,22,02,03,,,,,,1.43,0.75,1.22,4*0E

$GNGSA,A,3,07,03,,,,,,,,,,,1.43,0.75,1.22,5*04

$GPGSV,3,1,10,05,,,19,10,09,308,28,13,20,049,31,15,49,035,39,1*59

$GPGSV,3,2,10,18,63,266,26,23,46,329,41,24,76,147,42,41,36,237,43,1*62

$GPGSV,3,3,10,42,54,167,44,50,54,167,40,1*62

$GAGSV,1,1,04,03,61,012,43,13,29,318,38,15,73,252,43,34,36,164,41,7*79

$GAGSV,1,1,01,16,08,081,,0*43

$GBGSV,2,1,08,02,40,239,36,03,55,200,36,08,59,003,39,13,54,343,41,1*7D

$GBGSV,2,2,08,16,48,187,38,21,45,316,43,22,49,042,39,60,,,34,1*41

$GQGSV,1,1,02,03,47,166,43,07,54,167,37,1*63

$GQGSV,1,1,01,02,11,151,,0*52

$GNGLL,3013.43881,N,12015.58837,E,031133.90,A,A*7C

µb\®G9ÐÒA1,N,12015.58837,E,0.048,,180925,,,A,V*1A

$GNVTG,,T,,M,0.048,N,0.089,K,A*30

$GNGGA,031134.00,3013.43881,N,12015.58837,E,1,12,0.75,9.3,M,7.5,M,,*7E

$GNGSA,A,3,15,23,24,10,13,18,,,,,,,1.43,0.75,1.22,1*0D

$GNGSA,A,3,34,15,13,03,,,,,,,,,1.43,0.75,1.22,3*04

$GNGSA,A,3,08,13,16,21,22,02,03,,,,,,1.43,0.75,1.22,4*0E

$GNGSA,A,3,07,03,,,,,,,,,,,1.43,0.75,1.22,5*04

$GPGSV,3,1,10,05,,,19,10,09,308,28,13,20,049,31,15,49,035,39,1*59

$GPGSV,3,2,10,18,63,266,26,23,46,329,41,24,76,147,42,41,36,237,43,1*62

$GPGSV,3,3,10,42,54,167,44,50,54,167,40,1*62

$GAGSV,1,1,04,03,61,012,43,13,29,318,38,15,73,252,43,34,36,164,41,7*79

$GAGSV,1,1,01,16,08,081,,0*43

$GBGSV,2,1,08,02,40,239,37,03,55,200,37,08,59,003,39,13,54,343,42,1*7E

$GBGSV,2,2,08,16,48,187,38,21,45,316,44,22,49,042,40,60,,,34,1*48

$GQGSV,1,1,02,03,47,166,42,07,54,167,37,1*62

$GQGSV,1,1,01,02,11,151,,0*52

$GNGLL,3013.43881,N,12015.58837,E,031134.00,A,A*72

µb\é	"÷ë.58838,E,0.028,,180925,,,A,V*12

$GNVTG,,T,,M,0.028,N,0.052,K,A*30

$GNGGA,031134.10,3013.43881,N,12015.58838,E,1,12,0.75,9.3,M,7.5,M,,*70

$GNGSA,A,3,15,23,24,10,13,18,,,,,,,1.43,0.75,1.22,1*0D

$GNGSA,A,3,34,15,13,03,,,,,,,,,1.43,0.75,1.22,3*04

$GNGSA,A,3,08,13,16,21,22,02,03,,,,,,1.43,0.75,1.22,4*0E

$GNGSA,A,3,07,03,,,,,,,,,,,1.43,0.75,1.22,5*04

$GPGSV,3,1,10,05,,,19,10,09,308,28,13,20,049,31,15,49,035,39,1*59

$GPGSV,3,2,10,18,63,266,25,23,46,329,41,24,76,147,42,41,36,237,43,1*61

$GPGSV,3,3,10,42,54,167,44,50,54,167,40,1*62

$GAGSV,1,1,04,03,61,012,43,13,29,318,38,15,73,252,43,34,36,164,41,7*79

$GAGSV,1,1,01,16,08,081,,0*43

$GBGSV,2,1,08,02,40,239,37,03,55,200,37,08,59,003,39,13,54,343,42,1*7E

$GBGSV,2,2,08,16,48,187,38,21,45,316,44,22,49,042,40,60,,,35,1*49

$GQGSV,1,1,02,03,47,166,42,07,54,167,37,1*62

$GQGSV,1,1,01,02,11,151,,0*52

$GNGLL,3013.43881,N,12015.58838,E,031134.10,A,A*7C

µb\ë0.070,,180925,,,A,V*1C

$GNVTG,,T,,M,0.070,N,0.129,K,A*30

$GNGGA,031134.20,3013.43881,N,12015.58838,E,1,12,0.75,9.3,M,7.5,M,,*73

$GNGSA,A,3,15,23,24,10,13,18,,,,,,,1.43,0.75,1.22,1*0D

$GNGSA,A,3,34,15,13,03,,,,,,,,,1.43,0.75,1.22,3*04

$GNGSA,A,3,08,13,16,21,22,02,03,,,,,,1.43,0.75,1.22,4*0E

$GNGSA,A,3,07,03,,,,,,,,,,,1.43,0.75,1.22,5*04

$GPGSV,3,1,10,05,,,19,10,09,308,28,13,20,049,31,15,49,035,39,1*59

$GPGSV,3,2,10,18,63,266,25,23,46,329,41,24,76,147,42,41,36,237,43,1*61

$GPGSV,3,3,10,42,54,167,44,50,54,167,40,1*62

$GAGSV,1,1,04,03,61,012,43,13,29,318,38,15,73,252,43,34,36,164,41,7*79

$GAGSV,1,1,01,16,08,081,,0*43

$GBGSV,2,1,08,02,40,239,36,03,55,200,36,08,59,003,39,13,54,343,41,1*7D

$GBGSV,2,2,08,16,48,187,38,21,45,316,43,22,49,042,39,60,,,34,1*41

$GQGSV,1,1,02,03,47,166,42,07,54,167,37,1*62

$GQGSV,1,1,01,02,11,151,,0*52

$GNGLL,3013.43881,N,12015.58838,E,031134.20,A,A*7F

µb\ú°0®G9ÐµA.43881,N,12015.58838,E,0.059,,180925,,,A,V*16

$GNVTG,,T,,M,0.059,N,0.110,K,A*31

$GNGGA,031134.30,3013.43881,N,12015.58838,E,1,12,0.75,9.3,M,7.5,M,,*72

$GNGSA,A,3,15,23,24,10,13,18,,,,,,,1.43,0.75,1.22,1*0D

$GNGSA,A,3,34,15,13,03,,,,,,,,,1.43,0.75,1.22,3*04

$GNGSA,A,3,08,13,16,21,22,02,03,,,,,,1.43,0.75,1.22,4*0E

$GNGSA,A,3,07,03,,,,,,,,,,,1.43,0.75,1.22,5*04

$GPGSV,3,1,10,05,,,19,10,09,308,27,13,20,049,31,15,49,035,39,1*56

$GPGSV,3,2,10,18,63,266,25,23,46,329,41,24,76,147,42,41,36,237,42,1*60

$GPGSV,3,3,10,42,54,167,44,50,54,167,40,1*62

$GAGSV,1,1,04,03,61,012,43,13,29,318,37,15,73,252,43,34,36,164,41,7*76

$GAGSV,1,1,01,16,08,081,,0*43

$GBGSV,2,1,08,02,40,239,36,03,55,200,36,08,59,003,39,13,54,343,41,1*7D

$GBGSV,2,2,08,16,48,187,38,21,45,316,43,22,49,042,39,60,,,34,1*41

$GQGSV,1,1,02,03,47,166,42,07,54,167,37,1*62

$GQGSV,1,1,01,02,11,151,,0*52

$GNGLL,3013.43881,N,12015.58838,E,031134.30,A,A*7E

µb\12015.58839,E,0.032,,180925,,,A,V*1D

$GNVTG,,T,,M,0.032,N,0.059,K,A*30

$GNGGA,031134.40,3013.43881,N,12015.58839,E,1,12,0.75,9.3,M,7.5,M,,*74

$GNGSA,A,3,15,23,24,10,13,18,,,,,,,1.43,0.75,1.22,1*0D

$GNGSA,A,3,34,15,13,03,,,,,,,,,1.43,0.75,1.22,3*04

$GNGSA,A,3,08,13,16,21,22,02,03,,,,,,1.43,0.75,1.22,4*0E

$GNGSA,A,3,07,03,,,,,,,,,,,1.43,0.75,1.22,5*04

$GPGSV,3,1,10,05,,,19,10,09,308,27,13,20,049,31,15,49,035,39,1*56

$GPGSV,3,2,10,18,63,266,25,23,46,329,41,24,76,147,42,41,36,237,43,1*61

$GPGSV,3,3,10,42,54,167,44,50,54,167,40,1*62

$GAGSV,1,1,04,03,61,012,43,13,29,318,37,15,73,252,43,34,36,164,41,7*76

$GAGSV,1,1,01,16,08,081,,0*43

$GBGSV,2,1,08,02,40,239,36,03,55,200,36,08,59,003,39,13,54,343,41,1*7D

$GBGSV,2,2,08,16,48,187,38,21,45,316,43,22,49,042,39,60,,,34,1*41

$GQGSV,1,1,02,03,47,166,42,07,54,167,37,1*62

$GQGSV,1,1,01,02,11,151,,0*52

$GNGLL,3013.43881,N,12015.58839,E,031134.40,A,A*78

µb\.034,K,A*33

$GNGGA,031134.50,3013.43881,N,12015.58839,E,1,12,0.75,9.3,M,7.5,M,,*75

$GNGSA,A,3,15,23,24,10,13,18,,,,,,,1.43,0.75,1.22,1*0D

$GNGSA,A,3,34,15,13,03,,,,,,,,,1.43,0.75,1.22,3*04

$GNGSA,A,3,08,13,16,21,22,02,03,,,,,,1.43,0.75,1.22,4*0E

$GNGSA,A,3,07,03,,,,,,,,,,,1.43,0.75,1.22,5*04

$GPGSV,3,1,10,05,,,18,10,09,308,27,13,20,049,31,15,49,035,39,1*57

$GPGSV,3,2,10,18,63,266,25,23,46,329,41,24,76,147,42,41,36,237,42,1*60

$GPGSV,3,3,10,42,54,167,44,50,54,167,40,1*62

$GAGSV,1,1,04,03,61,012,43,13,29,318,37,15,73,252,43,34,36,164,41,7*76

$GAGSV,1,1,01,16,08,081,,0*43

$GBGSV,2,1,08,02,40,239,37,03,55,200,37,08,59,003,39,13,54,343,42,1*7E

$GBGSV,2,2,08,16,48,187,38,21,45,316,44,22,49,042,40,60,,,35,1*49

$GQGSV,1,1,02,03,47,166,42,07,54,167,37,1*62

$GQGSV,1,1,01,02,11,151,,0*52

$GNGLL,3013.43881,N,12015.58839,E,031134.50,A,A*79

µb\,,A,V*1C

$GNVTG,,T,,M,0.084,N,0.156,K,A*33

$GNGGA,031134.60,3013.43881,N,12015.58840,E,1,12,0.75,9.3,M,7.5,M,,*78

$GNGSA,A,3,15,23,24,10,13,18,,,,,,,1.43,0.75,1.22,1*0D

$GNGSA,A,3,34,15,13,03,,,,,,,,,1.43,0.75,1.22,3*04

$GNGSA,A,3,08,13,16,21,22,02,03,,,,,,1.43,0.75,1.22,4*0E

$GNGSA,A,3,07,03,,,,,,,,,,,1.43,0.75,1.22,5*04

$GPGSV,3,1,10,05,,,18,10,09,308,27,13,20,049,32,15,49,035,39,1*54

$GPGSV,3,2,10,18,63,266,25,23,46,329,41,24,76,147,42,41,36,237,42,1*60

$GPGSV,3,3,10,42,54,167,44,50,54,167,40,1*62

$GAGSV,1,1,04,03,61,012,43,13,29,318,37,15,73,252,43,34,36,164,41,7*76

$GAGSV,1,1,01,16,08,081,,0*43

$GBGSV,2,1,08,02,40,239,36,03,55,200,36,08,59,003,39,13,54,343,42,1*7E

$GBGSV,2,2,08,16,48,187,38,21,45,316,43,22,49,042,40,60,,,35,1*4E

$GQGSV,1,1,02,03,47,166,42,07,54,167,37,1*62

$GQGSV,1,1,01,02,11,151,,0*52

$GNGLL,3013.43881,N,12015.58840,E,031134.60,A,A*74

µb\,,A,V*1B

$GNVTG,,T,,M,0.082,N,0.152,K,A*31

$GNGGA,031134.70,3013.43881,N,12015.58840,E,1,12,0.75,9.3,M,7.5,M,,*79

$GNGSA,A,3,15,23,24,10,13,18,,,,,,,1.43,0.75,1.22,1*0D

$GNGSA,A,3,34,15,13,03,,,,,,,,,1.43,0.75,1.22,3*04

$GNGSA,A,3,08,13,16,21,22,02,03,,,,,,1.43,0.75,1.22,4*0E

$GNGSA,A,3,07,03,,,,,,,,,,,1.43,0.75,1.22,5*04

$GPGSV,3,1,10,05,,,18,10,09,308,27,13,20,049,32,15,49,035,39,1*54

$GPGSV,3,2,10,18,63,266,25,23,46,329,41,24,76,147,42,41,36,237,43,1*61

$GPGSV,3,3,10,42,54,167,44,50,54,167,40,1*62

$GAGSV,1,1,04,03,61,012,43,13,29,318,37,15,73,252,43,34,36,164,41,7*76

$GAGSV,1,1,01,16,08,081,,0*43

$GBGSV,2,1,08,02,40,239,36,03,55,200,36,08,59,003,39,13,54,343,41,1*7D

$GBGSV,2,2,08,16,48,187,38,21,45,316,43,22,49,042,39,60,,,34,1*41

$GQGSV,1,1,02,03,47,166,43,07,54,167,37,1*63

$GQGSV,1,1,01,02,11,151,,0*52

$GNGLL,3013.43881,N,12015.58840,E,031134.70,A,A*75

µb\1,N,12015.58840,E,0.042,,180925,,,A,V*18

$GNVTG,,T,,M,0.042,N,0.077,K,A*3B

$GNGGA,031134.80,3013.43881,N,12015.58840,E,1,12,0.75,9.3,M,7.5,M,,*76

$GNGSA,A,3,15,23,24,10,13,18,,,,,,,1.43,0.75,1.22,1*0D

$GNGSA,A,3,34,15,13,03,,,,,,,,,1.43,0.75,1.22,3*04

$GNGSA,A,3,08,13,16,21,22,02,03,,,,,,1.43,0.75,1.22,4*0E

$GNGSA,A,3,07,03,,,,,,,,,,,1.43,0.75,1.22,5*04

$GPGSV,3,1,10,05,,,18,10,09,308,27,13,20,049,32,15,49,035,39,1*54

$GPGSV,3,2,10,18,63,266,25,23,46,329,41,24,76,147,42,41,36,237,43,1*61

$GPGSV,3,3,10,42,54,167,44,50,54,167,40,1*62

$GAGSV,1,1,04,03,61,012,43,13,29,318,37,15,73,252,43,34,36,164,41,7*76

$GAGSV,1,1,01,16,08,081,,0*43

$GBGSV,2,1,08,02,40,239,36,03,55,200,36,08,59,003,39,13,54,343,41,1*7D

$GBGSV,2,2,08,16,48,187,38,21,45,316,43,22,49,042,39,60,,,34,1*41

$GQGSV,1,1,02,03,47,166,42,07,54,167,37,1*62

$GQGSV,1,1,01,02,11,151,,0*52

$GNGLL,3013.43881,N,12015.58840,E,031134.80,A,A*7A

µb\®G:ÐœA1,N,12015.58840,E,0.060,,180925,,,A,V*19

$GNVTG,,T,,M,0.060,N,0.110,K,A*3B

$GNGGA,031134.90,3013.43881,N,12015.58840,E,1,12,0.75,9.3,M,7.5,M,,*77

$GNGSA,A,3,15,23,24,10,13,18,,,,,,,1.43,0.75,1.22,1*0D

$GNGSA,A,3,34,15,13,03,,,,,,,,,1.43,0.75,1.22,3*04

$GNGSA,A,3,08,13,16,21,22,02,03,,,,,,1.43,0.75,1.22,4*0E

$GNGSA,A,3,07,03,,,,,,,,,,,1.43,0.75,1.22,5*04

$GPGSV,3,1,10,05,,,18,10,09,308,27,13,20,049,32,15,49,035,39,1*54

$GPGSV,3,2,10,18,63,266,25,23,46,329,41,24,76,147,42,41,36,237,43,1*61

$GPGSV,3,3,10,42,54,167,44,50,54,167,40,1*62

$GAGSV,1,1,04,03,61,012,43,13,29,318,37,15,73,252,43,34,36,164,41,7*76

$GAGSV,1,1,01,16,08,081,,0*43

$GBGSV,2,1,08,02,40,239,36,03,55,200,36,08,59,003,39,13,54,343,41,1*7D

$GBGSV,2,2,08,16,48,187,38,21,45,316,43,22,49,042,39,60,,,34,1*41

$GQGSV,1,1,02,03,47,166,42,07,54,167,37,1*62

$GQGSV,1,1,01,02,11,151,,0*52

$GNGLL,3013.43881,N,12015.58840,E,031134.90,A,A*7B

µb\®G:Ð’A1,N,12015.58841,E,0.025,,180925,,,A,V*11

$GNVTG,,T,,M,0.025,N,0.046,K,A*38

$GNGGA,031135.00,3013.43881,N,12015.58841,E,1,12,0.75,9.3,M,7.5,M,,*7E

$GNGSA,A,3,15,23,24,10,13,18,,,,,,,1.43,0.75,1.22,1*0D

$GNGSA,A,3,34,15,13,03,,,,,,,,,1.43,0.75,1.22,3*04

$GNGSA,A,3,08,13,16,21,22,02,03,,,,,,1.43,0.75,1.22,4*0E

$GNGSA,A,3,07,03,,,,,,,,,,,1.43,0.75,1.22,5*04

$GPGSV,3,1,10,05,,,17,10,09,308,27,13,20,049,32,15,49,035,39,1*5B

$GPGSV,3,2,10,18,63,266,25,23,46,329,41,24,76,147,42,41,36,237,43,1*61

$GPGSV,3,3,10,42,54,167,44,50,54,167,40,1*62

$GAGSV,1,1,04,03,61,012,43,13,29,318,37,15,73,252,42,34,36,164,41,7*77

$GAGSV,1,1,01,16,08,081,,0*43

$GBGSV,2,1,08,02,40,239,36,03,55,200,36,08,59,003,39,13,55,343,42,1*7F

$GBGSV,2,2,08,16,48,187,38,21,45,316,43,22,49,042,40,60,,,34,1*4F

$GQGSV,1,1,02,03,47,166,42,07,54,167,37,1*62

$GQGSV,1,1,01,02,11,151,,0*52

$GNGLL,3013.43881,N,12015.58841,E,031135.00,A,A*72

µb\é	#÷ë.58841,E,0.022,,180925,,,A,V*17

$GNVTG,,T,,M,0.022,N,0.042,K,A*3B

$GNGGA,031135.10,3013.43881,N,12015.58841,E,1,12,0.75,9.3,M,7.5,M,,*7F

$GNGSA,A,3,15,23,24,10,13,18,,,,,,,1.43,0.75,1.22,1*0D

$GNGSA,A,3,34,15,13,03,,,,,,,,,1.43,0.75,1.22,3*04

$GNGSA,A,3,08,13,16,21,22,02,03,,,,,,1.43,0.75,1.22,4*0E

$GNGSA,A,3,07,03,,,,,,,,,,,1.43,0.75,1.22,5*04

$GPGSV,3,1,10,05,,,17,10,09,308,27,13,20,049,32,15,49,035,39,1*5B

$GPGSV,3,2,10,18,63,266,25,23,46,329,41,24,76,147,42,41,36,237,43,1*61

$GPGSV,3,3,10,42,54,167,44,50,54,167,40,1*62

$GAGSV,1,1,04,03,61,012,43,13,29,318,37,15,73,252,43,34,36,164,41,7*76

$GAGSV,1,1,01,16,08,081,,0*43

$GBGSV,2,1,08,02,40,239,36,03,55,200,36,08,59,003,39,13,55,343,42,1*7F

$GBGSV,2,2,08,16,48,187,38,21,45,316,43,22,49,042,40,60,,,34,1*4F

$GQGSV,1,1,02,03,47,166,42,07,54,167,37,1*62

$GQGSV,1,1,01,02,11,151,,0*52

$GNGLL,3013.43881,N,12015.58841,E,031135.10,A,A*73

µb\ë0.056,,180925,,,A,V*17

$GNVTG,,T,,M,0.056,N,0.105,K,A*3A

$GNGGA,031135.20,3013.43881,N,12015.58841,E,1,12,0.75,9.3,M,7.5,M,,*7C

$GNGSA,A,3,15,23,24,10,13,18,,,,,,,1.43,0.75,1.22,1*0D

$GNGSA,A,3,34,15,13,03,,,,,,,,,1.43,0.75,1.22,3*04

