$GPGSV,5,1,18,05,24,108,32,12,04,154,22,15,47,036,30,18,61,261,39,1*65

$GPGSV,5,2,18,23,47,330,32,24,76,140,29,32,04,255,26,02,12,319,,1*69

$GPGSV,5,3,18,10,09,307,,13,18,049,,14,,,,20,04,122,,1*53

$GPGSV,5,4,18,29,03,206,,38,,,34,39,,,34,41,,,48,1*58

$GPGSV,5,5,18,42,,,46,50,,,43,1*6B

$GPGGA,031531.00,3013.544531,N,12015.562294,E,1,04,1.0,234.3,M,7.0,M,,*57

$GPVTG,147.7,T,152.1,M,0.0,N,0.0,K,A*21

$GPRMC,031531.00,A,3013.544531,N,12015.562294,E,0.0,147.7,180925,4.4,W,A,V*50

$GPGSA,A,3,05,15,18,24,,,,,,,,,1.3,1.0,0.9,1*2B

$GPGSV,5,1,19,05,24,108,32,12,04,154,22,15,47,036,30,18,61,261,42,1*68

$GPGSV,5,2,19,23,47,330,32,24,76,140,29,32,04,255,23,02,12,319,,1*6D

$GPGSV,5,3,19,10,09,307,,13,18,049,,14,,,,20,04,122,,1*52

$GPGSV,5,4,19,22,01,056,,29,03,206,,38,,,34,39,,,34,1*62

$GPGSV,5,5,19,41,,,47,42,,,43,50,,,44,1*6E

$GPGGA,031532.00,3013.544492,N,12015.562359,E,1,04,1.0,234.4,M,7.0,M,,*5B

$GPVTG,147.7,T,152.1,M,0.0,N,0.0,K,A*21

$GPRMC,031532.00,A,3013.544492,N,12015.562359,E,0.0,147.7,180925,4.4,W,A,V*5B

$GPGSA,A,3,05,15,18,24,,,,,,,,,1.3,1.0,0.9,1*2B

$GPGSV,5,1,19,05,24,108,31,12,04,154,19,15,47,036,32,18,61,261,43,1*60

$GPGSV,5,2,19,23,47,330,34,24,76,140,30,32,04,255,26,02,12,319,,1*66

$GPGSV,5,3,19,10,09,307,,13,18,049,,14,,,,20,04,122,,1*52

$GPGSV,5,4,19,22,01,056,,29,03,206,,38,,,34,39,,,34,1*62

$GPGSV,5,5,19,41,,,47,42,,,43,50,,,45,1*6F

$GPGGA,031533.00,3013.544480,N,12015.562386,E,1,04,1.0,234.8,M,7.0,M,,*57

$GPVTG,147.7,T,152.1,M,0.0,N,0.0,K,A*21

$GPRMC,031533.00,A,3013.544480,N,12015.562386,E,0.0,147.7,180925,4.4,W,A,V*5B

$GPGSA,A,3,05,15,18,24,,,,,,,,,1.3,1.0,0.9,1*2B

$GPGSV,5,1,19,05,24,108,31,12,04,154,19,15,47,036,33,18,61,261,43,1*61

$GPGSV,5,2,19,23,47,330,32,24,76,140,29,32,04,255,26,02,12,319,,1*68

$GPGSV,5,3,19,10,09,307,,13,18,049,,14,,,,20,04,122,,1*52

$GPGSV,5,4,19,22,01,056,,29,03,206,,38,,,34,39,,,34,1*62

$GPGSV,5,5,19,41,,,48,42,,,42,50,,,45,1*61

$GPGGA,031534.00,3013.544481,N,12015.562507,E,1,04,1.0,236.5,M,7.0,M,,*51

$GPVTG,147.7,T,152.1,M,0.0,N,0.0,K,A*21

$GPRMC,031534.00,A,3013.544481,N,12015.562507,E,0.0,147.7,180925,4.4,W,A,V*52

$GPGSA,A,3,05,15,18,24,,,,,,,,,1.3,1.0,0.9,1*2B

$GPGSV,5,1,18,05,24,108,30,12,04,154,19,15,47,036,33,18,61,261,43,1*61

$GPGSV,5,2,18,23,47,330,31,24,76,140,30,32,04,255,26,02,12,319,,1*62

$GPGSV,5,3,18,10,09,307,,14,,,,20,04,122,,22,01,056,,1*57

$GPGSV,5,4,18,29,03,206,,38,,,34,39,,,34,41,,,48,1*58

$GPGSV,5,5,18,42,,,42,50,,,44,1*68

$GPGGA,031535.00,3013.544483,N,12015.562602,E,1,04,1.0,237.9,M,7.0,M,,*59

$GPVTG,147.7,T,152.1,M,0.0,N,0.0,K,A*21

$GPRMC,031535.00,A,3013.544483,N,12015.562602,E,0.0,147.7,180925,4.4,W,A,V*57

$GPGSA,A,3,05,15,18,24,,,,,,,,,1.3,1.0,0.9,1*2B

$GPGSV,5,1,19,05,24,108,30,12,04,154,19,15,47,036,33,18,61,261,43,1*60

$GPGSV,5,2,19,23,47,330,30,24,76,140,29,32,04,255,25,02,12,319,,1*69

$GPGSV,5,3,19,10,09,307,,13,18,049,,14,,,,20,04,122,,1*52

$GPGSV,5,4,19,22,01,056,,29,03,206,,38,,,34,39,,,34,1*62

$GPGSV,5,5,19,41,,,48,42,,,43,50,,,45,1*60

$GPGGA,031536.00,3013.544485,N,12015.562691,E,1,04,1.1,238.9,M,7.0,M,,*58

$GPVTG,147.7,T,152.1,M,0.0,N,0.0,K,A*21

$GPRMC,031536.00,A,3013.544485,N,12015.562691,E,0.0,147.7,180925,4.4,W,A,V*58

$GPGSA,A,3,05,15,18,24,,,,,,,,,1.4,1.1,0.9,1*2D

$GPGSV,5,1,19,05,24,108,30,12,04,154,19,15,47,036,33,18,61,261,42,1*61

$GPGSV,5,2,19,23,47,330,30,24,76,140,30,32,04,255,26,02,12,319,,1*62

$GPGSV,5,3,19,10,09,307,,13,18,049,,14,,,,20,04,122,,1*52

$GPGSV,5,4,19,22,01,056,,29,03,206,,38,,,34,39,,,34,1*62

$GPGSV,5,5,19,41,,,48,42,,,43,50,,,44,1*61

$GPGGA,031537.00,3013.544486,N,12015.562774,E,1,04,1.1,240.0,M,7.0,M,,*56

$GPVTG,147.7,T,152.1,M,0.0,N,0.0,K,A*21

$GPRMC,031537.00,A,3013.544486,N,12015.562774,E,0.0,147.7,180925,4.4,W,A,V*50

$GPGSA,A,3,05,15,18,24,,,,,,,,,1.4,1.1,0.9,1*2D

$GPGSV,5,1,18,05,24,108,31,12,04,154,19,15,47,036,33,18,61,261,42,1*61

$GPGSV,5,2,18,23,47,330,29,24,76,140,30,32,04,255,25,02,12,319,,1*68

$GPGSV,5,3,18,10,09,307,,14,,,,20,04,122,,22,01,056,,1*57

$GPGSV,5,4,18,29,03,206,,38,,,34,39,,,34,41,,,48,1*58

$GPGSV,5,5,18,42,,,43,50,,,44,1*69

$GPGGA,031538.00,3013.544489,N,12015.562845,E,1,04,1.1,241.1,M,7.0,M,,*5B

$GPVTG,147.7,T,152.1,M,0.0,N,0.0,K,A*21

$GPRMC,031538.00,A,3013.544489,N,12015.562845,E,0.0,147.7,180925,4.4,W,A,V*5D

$GPGSA,A,3,05,15,18,24,,,,,,,,,1.4,1.1,0.9,1*2D

$GPGSV,5,1,19,05,24,108,32,10,09,307,28,12,04,154,19,15,47,036,32,1*69

$GPGSV,5,2,19,18,61,261,42,23,47,330,34,24,76,140,30,32,04,255,25,1*62

$GPGSV,5,3,19,02,12,319,,13,18,049,,14,,,,20,04,122,,1*54

$GPGSV,5,4,19,22,01,056,,29,03,206,,38,,,34,39,,,34,1*62

$GPGSV,5,5,19,41,,,47,42,,,43,50,,,44,1*6E

$GPGGA,031539.00,3013.544489,N,12015.562880,E,1,04,1.1,242.1,M,7.0,M,,*50

$GPVTG,147.7,T,152.1,M,0.0,N,0.0,K,A*21

$GPRMC,031539.00,A,3013.544489,N,12015.562880,E,0.0,147.7,180925,4.4,W,A,V*55

$GPGSA,A,3,05,15,18,24,,,,,,,,,1.4,1.1,0.9,1*2D

$GPGSV,5,1,19,05,24,108,32,10,09,307,28,12,04,154,19,15,47,036,25,1*6F

$GPGSV,5,2,19,18,61,261,41,23,47,330,31,24,76,140,28,32,04,255,26,1*6E

$GPGSV,5,3,19,02,12,319,,13,18,049,,14,,,,20,04,122,,1*54

$GPGSV,5,4,19,22,01,056,,29,03,206,,38,,,34,39,,,34,1*62

$GPGSV,5,5,19,41,,,47,42,,,45,50,,,44,1*68

$GPGGA,031540.00,3013.544486,N,12015.562843,E,1,04,1.0,243.7,M,7.0,M,,*58

$GPVTG,147.7,T,152.1,M,0.0,N,0.0,K,A*21

$GPRMC,031540.00,A,3013.544486,N,12015.562843,E,0.0,147.7,180925,4.4,W,A,V*5B

$GPGSA,A,3,05,15,18,24,,,,,,,,,1.3,1.0,0.9,1*2B

$GPGSV,5,1,19,05,24,108,33,10,09,307,29,12,04,154,19,15,47,036,25,1*6F

$GPGSV,5,2,19,18,61,261,41,23,47,330,33,24,76,140,28,32,04,255,27,1*6D

$GPGSV,5,3,19,02,12,319,,13,18,049,,14,,,,20,04,122,,1*54

$GPGSV,5,4,19,22,01,056,,29,03,206,,38,,,34,39,,,34,1*62

$GPGSV,5,5,19,41,,,48,42,,,45,50,,,44,1*67

$GPGGA,031541.00,3013.544512,N,12015.562796,E,1,04,0.9,245.8,M,7.0,M,,*53

$GPVTG,147.7,T,152.1,M,0.0,N,0.0,K,A*21

$GPRMC,031541.00,A,3013.544512,N,12015.562796,E,0.0,147.7,180925,4.4,W,A,V*51

$GPGSA,A,3,05,15,18,24,,,,,,,,,1.2,0.9,0.8,1*23

$GPGSV,5,1,19,05,24,108,33,10,09,307,29,12,04,154,19,15,47,036,29,1*63

$GPGSV,5,2,19,18,61,261,41,23,47,330,34,24,76,140,29,32,04,255,27,1*6B

$GPGSV,5,3,19,02,12,319,,13,18,049,,14,,,,20,04,122,,1*54

$GPGSV,5,4,19,22,01,056,,29,03,206,,38,,,34,39,,,34,1*62

$GPGSV,5,5,19,41,,,47,42,,,44,50,,,44,1*69

$GPGGA,031542.00,3013.544544,N,12015.562775,E,1,04,0.9,246.9,M,7.0,M,,*5C

$GPVTG,147.7,T,152.1,M,0.0,N,0.0,K,A*21

$GPRMC,031542.00,A,3013.544544,N,12015.562775,E,0.0,147.7,180925,4.4,W,A,V*5C

$GPGSA,A,3,05,15,18,24,,,,,,,,,1.2,0.9,0.8,1*23

$GPGSV,5,1,19,05,24,108,33,10,09,307,29,12,05,151,19,15,47,036,31,1*6E

$GPGSV,5,2,19,18,61,261,38,23,47,330,34,24,76,140,31,32,04,255,27,1*6C

$GPGSV,5,3,19,02,12,319,,13,18,049,,14,,,,20,04,122,,1*54

$GPGSV,5,4,19,22,01,056,,29,03,206,,38,,,34,39,,,34,1*62

$GPGSV,5,5,19,41,,,46,42,,,44,50,,,45,1*69

$GPGGA,031543.00,3013.544574,N,12015.562694,E,1,04,0.9,247.6,M,7.0,M,,*5E

$GPVTG,147.7,T,152.1,M,0.0,N,0.0,K,A*21

$GPRMC,031543.00,A,3013.544574,N,12015.562694,E,0.0,147.7,180925,4.4,W,A,V*50

$GPGSA,A,3,05,15,18,24,,,,,,,,,1.2,0.9,0.8,1*23

$GPGSV,5,1,19,05,24,108,33,10,09,307,29,12,05,151,19,15,47,036,32,1*6D

$GPGSV,5,2,19,18,61,261,36,23,47,330,33,24,76,140,30,32,04,255,27,1*64

$GPGSV,5,3,19,02,12,319,,13,18,049,,14,,,,20,04,122,,1*54

$GPGSV,5,4,19,22,01,056,,29,03,206,,38,,,34,39,,,34,1*62

$GPGSV,5,5,19,41,,,47,42,,,46,50,,,45,1*6A

$GPGGA,031544.00,3013.544553,N,12015.562661,E,1,04,0.9,248.7,M,7.0,M,,*58

$GPVTG,147.7,T,152.1,M,0.3,N,0.6,K,A*24

$GPRMC,031544.00,A,3013.544553,N,12015.562661,E,0.3,147.7,180925,4.4,W,A,V*5B

$GPGSA,A,3,05,15,18,24,,,,,,,,,1.2,0.9,0.8,1*23

$GPGSV,5,1,19,05,24,108,34,15,47,036,34,18,61,261,36,23,47,330,35,1*6A

$GPGSV,5,2,19,24,76,140,32,32,04,255,27,02,12,319,,10,09,307,,1*6C

$GPGSV,5,3,19,12,05,151,,13,18,049,,14,,,,20,04,122,,1*5D

$GPGSV,5,4,19,22,01,056,,29,03,206,,38,,,34,39,,,34,1*62

$GPGSV,5,5,19,41,,,46,42,,,49,50,,,43,1*62

$GPGGA,031545.00,3013.544486,N,12015.562638,E,1,04,0.9,251.0,M,7.0,M,,*53

$GPVTG,147.7,T,152.1,M,0.0,N,0.0,K,A*21

$GPRMC,031545.00,A,3013.544486,N,12015.562638,E,0.0,147.7,180925,4.4,W,A,V*5C

$GPGSA,A,3,05,15,18,24,,,,,,,,,1.2,0.9,0.8,1*23

$GPGSV,5,1,19,05,24,108,33,15,47,036,32,18,61,261,36,23,47,330,34,1*6A

$GPGSV,5,2,19,24,76,140,33,32,04,255,27,02,12,319,,10,09,307,,1*6D

$GPGSV,5,3,19,12,05,151,,13,18,049,,14,,,,20,04,122,,1*5D

$GPGSV,5,4,19,22,01,056,,29,03,206,,38,,,34,39,,,34,1*62

$GPGSV,5,5,19,41,,,46,42,,,48,50,,,43,1*63

$GPGGA,031546.00,3013.544450,N,12015.562498,E,1,04,0.9,251.7,M,7.0,M,,*54

$GPVTG,147.7,T,152.1,M,0.0,N,0.0,K,A*21

$GPRMC,031546.00,A,3013.544450,N,12015.562498,E,0.0,147.7,180925,4.4,W,A,V*5C

$GPGSA,A,3,05,15,18,24,,,,,,,,,1.2,0.9,0.8,1*23

$GPGSV,4,1,13,05,24,108,31,10,09,307,29,15,47,036,31,18,61,261,31,1*65

$GPGSV,4,2,13,23,47,330,33,24,76,140,31,32,04,255,25,29,03,206,,1*6E

$GPGSV,4,3,13,38,,,34,39,,,34,41,,,48,42,,,44,1*6F

$GPGSV,4,4,13,50,,,45,1*62

$GPGGA,031547.00,3013.544459,N,12015.562566,E,1,04,1.0,253.5,M,7.0,M,,*54

$GPVTG,89.6,T,94.1,M,0.6,N,1.1,K,A*2E

$GPRMC,031547.00,A,3013.544459,N,12015.562566,E,0.6,89.6,180925,4.4,W,A,V*60

$GPGSA,A,3,05,15,18,24,,,,,,,,,1.3,1.0,0.8,1*2A

$GPGSV,5,1,18,05,24,108,30,10,09,307,28,15,47,036,31,23,47,330,32,1*65

$GPGSV,5,2,18,24,76,140,30,32,04,255,26,02,12,319,,13,18,049,,1*64

$GPGSV,5,3,18,14,,,,18,61,261,,20,04,122,,22,01,056,,1*50

$GPGSV,5,4,18,29,03,206,,38,,,34,39,,,34,41,,,48,1*58

$GPGSV,5,5,18,42,,,44,50,,,45,1*6F

$GPGGA,031548.00,3013.544450,N,12015.562501,E,1,04,1.0,254.7,M,7.0,M,,*56

$GPVTG,89.6,T,94.1,M,0.0,N,0.0,K,A*28

$GPRMC,031548.00,A,3013.544450,N,12015.562501,E,0.0,89.6,180925,4.4,W,A,V*61

$GPGSA,A,3,05,15,18,24,,,,,,,,,1.3,1.0,0.8,1*2A

$GPGSV,5,1,18,05,24,108,30,15,47,036,30,23,47,330,32,24,76,140,30,1*63

$GPGSV,5,2,18,32,04,255,24,02,12,319,,10,09,307,,13,18,049,,1*6B

$GPGSV,5,3,18,14,,,,18,61,261,,20,04,122,,22,01,056,,1*50

$GPGSV,5,4,18,29,03,206,,38,,,34,39,,,34,41,,,48,1*58

$GPGSV,5,5,18,42,,,44,50,,,45,1*6F

$GPGGA,031549.00,3013.544454,N,12015.562393,E,1,04,1.0,255.9,M,7.0,M,,*51

$GPVTG,147.7,T,152.1,M,0.0,N,0.0,K,A*21

$GPRMC,031549.00,A,3013.544454,N,12015.562393,E,0.0,147.7,180925,4.4,W,A,V*5B

$GPGSA,A,3,05,15,18,24,,,,,,,,,1.3,1.0,0.8,1*2A

$GPGSV,5,1,19,05,24,108,28,15,47,036,28,23,47,330,33,24,76,140,30,1*63

$GPGSV,5,2,19,32,04,255,23,02,12,319,,10,09,307,,12,05,151,,1*68

$GPGSV,5,3,19,13,18,049,,14,,,,18,61,261,,20,04,122,,1*55

$GPGSV,5,4,19,22,01,056,,29,03,206,,38,,,34,39,,,34,1*62

$GPGSV,5,5,19,41,,,48,42,,,43,50,,,45,1*60

$GPGGA,031550.00,3013.544474,N,12015.562196,E,1,04,1.0,256.9,M,7.0,M,,*5F

$GPVTG,147.7,T,152.1,M,0.0,N,0.0,K,A*21

$GPRMC,031550.00,A,3013.544474,N,12015.562196,E,0.0,147.7,180925,4.4,W,A,V*56

$GPGSA,A,3,05,15,18,24,,,,,,,,,1.3,1.0,0.8,1*2A

$GPGSV,5,1,19,05,24,108,26,10,09,307,31,15,47,036,31,18,61,261,31,1*61

$GPGSV,5,2,19,23,47,330,34,24,76,140,29,32,04,255,25,02,12,319,,1*6D

$GPGSV,5,3,19,12,05,151,,13,18,049,,14,,,,20,04,122,,1*5D

$GPGSV,5,4,19,22,01,056,,29,03,206,,38,,,34,39,,,34,1*62

$GPGSV,5,5,19,41,,,48,42,,,44,50,,,45,1*67

$GPGGA,031551.00,3013.544490,N,12015.562074,E,1,04,1.0,257.8,M,7.0,M,,*59

$GPVTG,147.7,T,152.1,M,0.0,N,0.0,K,A*21

$GPRMC,031551.00,A,3013.544490,N,12015.562074,E,0.0,147.7,180925,4.4,W,A,V*50

$GPGSA,A,3,05,15,18,24,,,,,,,,,1.3,1.0,0.8,1*2A

$GPGSV,5,1,19,05,24,108,27,10,09,307,30,15,47,036,32,18,61,261,31,1*62

$GPGSV,5,2,19,23,47,330,36,24,76,140,29,32,04,255,24,02,12,319,,1*6E

$GPGSV,5,3,19,12,05,151,,13,18,049,,14,,,,20,04,122,,1*5D

$GPGSV,5,4,19,22,01,056,,29,03,206,,38,,,34,39,,,34,1*62

$GPGSV,5,5,19,41,,,47,42,,,44,50,,,45,1*68

$GPGGA,031552.00,3013.544524,N,12015.561860,E,1,04,1.0,258.7,M,7.0,M,,*5A

$GPVTG,147.7,T,152.1,M,0.0,N,0.0,K,A*21

$GPRMC,031552.00,A,3013.544524,N,12015.561860,E,0.0,147.7,180925,4.4,W,A,V*53

$GPGSA,A,3,05,15,18,24,,,,,,,,,1.3,1.0,0.8,1*2A

$GPGSV,5,1,19,05,24,108,27,10,09,307,31,15,47,036,32,18,61,261,30,1*62

$GPGSV,5,2,19,23,47,330,35,24,76,140,29,32,04,255,20,02,12,319,,1*69

$GPGSV,5,3,19,12,05,151,,13,18,049,,14,,,,20,04,122,,1*5D

$GPGSV,5,4,19,22,01,056,,29,03,206,,38,,,34,39,,,34,1*62

$GPGSV,5,5,19,41,,,47,42,,,45,50,,,46,1*6A

$GPGGA,031553.00,3013.544553,N,12015.561729,E,1,04,1.0,259.6,M,7.0,M,,*59

$GPVTG,147.7,T,152.1,M,0.0,N,0.0,K,A*21

$GPRMC,031553.00,A,3013.544553,N,12015.561729,E,0.0,147.7,180925,4.4,W,A,V*50

$GPGSA,A,3,05,15,18,24,,,,,,,,,1.3,1.0,0.8,1*2A

$GPGSV,5,1,19,05,24,108,27,10,09,307,32,15,47,036,32,18,61,261,32,1*63

$GPGSV,5,2,19,23,47,330,37,24,76,140,29,32,04,255,22,02,12,319,,1*69

$GPGSV,5,3,19,12,05,151,,13,18,049,,14,,,,20,04,122,,1*5D

$GPGSV,5,4,19,22,01,056,,29,03,206,,38,,,34,39,,,34,1*62

$GPGSV,5,5,19,41,,,47,42,,,45,50,,,46,1*6A

$GPGGA,031554.00,3013.544598,N,12015.561504,E,1,04,1.1,260.4,M,7.0,M,,*5D

$GPVTG,147.7,T,152.1,M,0.0,N,0.0,K,A*21

$GPRMC,031554.00,A,3013.544598,N,12015.561504,E,0.0,147.7,180925,4.4,W,A,V*5D

$GPGSA,A,3,05,15,18,24,,,,,,,,,1.4,1.1,0.9,1*2D

$GPGSV,5,1,19,05,24,108,24,10,09,307,33,15,47,036,33,18,61,261,31,1*63

$GPGSV,5,2,19,23,47,330,37,24,76,140,30,32,04,255,22,02,12,319,,1*61

$GPGSV,5,3,19,12,05,151,,13,18,049,,14,,,,20,04,122,,1*5D

$GPGSV,5,4,19,22,01,056,,29,03,206,,38,,,34,39,,,34,1*62

$GPGSV,5,5,19,41,,,47,42,,,45,50,,,45,1*69

$GPGGA,031555.00,3013.544611,N,12015.561355,E,1,04,1.1,261.0,M,7.0,M,,*59

$GPVTG,147.7,T,152.1,M,0.0,N,0.0,K,A*21

$GPRMC,031555.00,A,3013.544611,N,12015.561355,E,0.0,147.7,180925,4.4,W,A,V*5C

$GPGSA,A,3,05,15,18,24,,,,,,,,,1.4,1.1,0.9,1*2D

$GPGSV,5,1,19,05,24,108,27,10,09,307,33,15,47,036,33,18,61,261,28,1*68

$GPGSV,5,2,19,23,47,330,38,24,76,140,29,32,04,255,20,02,12,319,,1*64

$GPGSV,5,3,19,12,05,151,,13,18,049,,14,,,,20,04,122,,1*5D

$GPGSV,5,4,19,22,01,056,,29,03,206,,38,,,34,39,,,34,1*62

$GPGSV,5,5,19,41,,,47,42,,,44,50,,,45,1*68

$GPGGA,031556.00,3013.544448,N,12015.560149,E,1,04,1.1,258.9,M,7.0,M,,*59

$GPVTG,147.7,T,152.1,M,0.0,N,0.0,K,A*21

$GPRMC,031556.00,A,3013.544448,N,12015.560149,E,0.0,147.7,180925,4.4,W,A,V*5F

$GPGSA,A,3,05,15,18,24,,,,,,,,,1.4,1.1,0.9,1*2D

$GPGSV,5,1,19,05,24,108,28,10,09,307,32,15,47,036,32,23,47,330,38,1*6F

$GPGSV,5,2,19,24,76,140,28,32,04,255,20,02,12,319,,12,05,151,,1*6F

$GPGSV,5,3,19,13,18,049,,14,,,,18,61,261,,20,04,122,,1*55

$GPGSV,5,4,19,22,01,056,,29,03,206,,38,,,34,39,,,34,1*62

$GPGSV,5,5,19,41,,,48,42,,,44,50,,,45,1*67

$GPGGA,031557.00,3013.544338,N,12015.559401,E,1,04,1.1,258.5,M,7.0,M,,*57

$GPVTG,147.7,T,152.1,M,0.0,N,0.0,K,A*21

$GPRMC,031557.00,A,3013.544338,N,12015.559401,E,0.0,147.7,180925,4.4,W,A,V*5D

$GPGSA,A,3,05,15,18,24,,,,,,,,,1.4,1.1,0.9,1*2D

$GPGSV,5,1,18,05,24,108,30,10,09,307,32,12,05,151,17,15,47,036,33,1*6A

$GPGSV,5,2,18,23,47,330,40,24,76,140,28,02,12,319,,13,18,049,,1*68

$GPGSV,5,3,18,14,,,,18,61,261,,20,04,122,,29,03,206,,1*5E

$GPGSV,5,4,18,32,04,255,,38,,,34,39,,,34,41,,,48,1*53

$GPGSV,5,5,18,42,,,44,50,,,45,1*6F

$GPGGA,031558.00,3013.544151,N,12015.558165,E,1,04,1.2,257.4,M,7.0,M,,*5E

$GPVTG,147.7,T,152.1,M,0.0,N,0.0,K,A*21

$GPRMC,031558.00,A,3013.544151,N,12015.558165,E,0.0,147.7,180925,4.4,W,A,V*59

$GPGSA,A,3,05,15,18,24,,,,,,,,,1.5,1.2,0.9,1*2F

$GPGSV,5,1,18,05,24,108,31,10,09,307,33,12,05,151,17,15,47,036,31,1*68

$GPGSV,5,2,18,23,47,330,39,24,76,140,27,02,12,319,,13,18,049,,1*69

$GPGSV,5,3,18,14,,,,18,61,261,,20,04,122,,29,03,206,,1*5E

$GPGSV,5,4,18,32,04,255,,38,,,34,39,,,34,41,,,48,1*53

$GPGSV,5,5,18,42,,,45,50,,,46,1*6D

$GPGGA,031559.00,3013.544056,N,12015.557559,E,1,04,1.2,256.9,M,7.0,M,,*51

$GPVTG,147.7,T,152.1,M,0.0,N,0.0,K,A*21

$GPRMC,031559.00,A,3013.544056,N,12015.557559,E,0.0,147.7,180925,4.4,W,A,V*5A

$GPGSA,A,3,05,15,18,24,,,,,,,,,1.5,1.2,0.9,1*2F

$GPGSV,5,1,18,05,24,108,30,10,09,307,33,12,05,151,17,15,47,036,31,1*69

$GPGSV,5,2,18,23,47,330,39,24,76,140,29,02,12,319,,13,18,049,,1*67

$GPGSV,5,3,18,14,,,,18,61,261,,20,04,122,,22,01,056,,1*50

$GPGSV,5,4,18,32,04,255,,38,,,34,39,,,34,41,,,48,1*53

$GPGSV,5,5,18,42,,,46,50,,,45,1*6D

$GPGGA,031600.00,3013.543894,N,12015.556659,E,1,04,1.2,256.2,M,7.0,M,,*56

$GPVTG,147.7,T,152.1,M,0.0,N,0.0,K,A*21

$GPRMC,031600.00,A,3013.543894,N,12015.556659,E,0.0,147.7,180925,4.4,W,A,V*56

$GPGSA,A,3,05,15,18,24,,,,,,,,,1.5,1.2,0.9,1*2F

$GPGSV,5,1,19,05,24,108,31,10,09,307,33,15,47,036,30,18,61,261,32,1*67

$GPGSV,5,2,19,23,46,329,39,24,76,140,28,02,12,319,,12,05,151,,1*6B

$GPGSV,5,3,19,13,18,049,,14,,,,20,04,122,,22,01,056,,1*5C

$GPGSV,5,4,19,29,03,206,,32,04,255,,38,,,34,39,,,34,1*67

$GPGSV,5,5,19,41,,,48,42,,,45,50,,,45,1*66

$GPGGA,031601.00,3013.543790,N,12015.556179,E,1,04,1.1,255.6,M,7.0,M,,*5D

$GPVTG,147.7,T,152.1,M,0.0,N,0.0,K,A*21

$GPRMC,031601.00,A,3013.543790,N,12015.556179,E,0.0,147.7,180925,4.4,W,A,V*59

$GPGSA,A,3,05,15,18,24,,,,,,,,,1.4,1.1,0.9,1*2D

$GPGSV,5,1,19,05,24,108,31,10,09,307,33,15,47,036,29,18,61,261,29,1*65

$GPGSV,5,2,19,23,46,329,39,24,76,140,28,02,12,319,,12,05,151,,1*6B

$GPGSV,5,3,19,13,18,049,,14,,,,20,04,122,,22,01,056,,1*5C

$GPGSV,5,4,19,29,03,206,,32,04,255,,38,,,34,39,,,34,1*67

$GPGSV,5,5,19,41,,,48,42,,,45,50,,,45,1*66

$GPGGA,031602.00,3013.543632,N,12015.555461,E,1,04,1.2,255.0,M,7.0,M,,*5D

$GPVTG,147.7,T,152.1,M,0.0,N,0.0,K,A*21

$GPRMC,031602.00,A,3013.543632,N,12015.555461,E,0.0,147.7,180925,4.4,W,A,V*5C

$GPGSA,A,3,05,15,18,24,,,,,,,,,1.5,1.2,0.9,1*2F

$GPGSV,4,1,14,05,24,108,31,10,09,307,33,15,47,036,29,18,61,261,29,1*69

$GPGSV,4,2,14,23,46,329,39,24,76,140,28,32,04,255,21,12,05,151,,1*69

$GPGSV,4,3,14,14,,,,38,,,34,39,,,34,41,,,48,1*6B

$GPGSV,4,4,14,42,,,45,50,,,45,1*62

$GPGGA,031603.00,3013.543532,N,12015.555064,E,1,04,1.1,254.6,M,7.0,M,,*5A

$GPVTG,147.7,T,152.1,M,0.0,N,0.0,K,A*21

$GPRMC,031603.00,A,3013.543532,N,12015.555064,E,0.0,147.7,180925,4.4,W,A,V*5F

$GPGSA,A,3,05,15,18,24,,,,,,,,,1.4,1.1,0.9,1*2D

$GPGSV,5,1,19,05,23,108,31,10,09,307,33,15,47,036,29,23,46,329,39,1*63

$GPGSV,5,2,19,24,76,140,25,32,04,255,21,02,12,319,,12,05,151,,1*63

$GPGSV,5,3,19,13,18,049,,14,,,,18,61,260,,20,04,122,,1*54

$GPGSV,5,4,19,22,01,056,,29,03,206,,38,,,34,39,,,34,1*62

$GPGSV,5,5,19,41,,,48,42,,,45,50,,,45,1*66

$GPGGA,031604.00,3013.543378,N,12015.554480,E,1,04,1.1,254.0,M,7.0,M,,*5C

$GPVTG,147.7,T,152.1,M,0.0,N,0.0,K,A*21

$GPRMC,031604.00,A,3013.543378,N,12015.554480,E,0.0,147.7,180925,4.4,W,A,V*5F

$GPGSA,A,3,05,15,18,24,,,,,,,,,1.4,1.1,0.9,1*2D

$GPGSV,5,1,19,05,23,108,32,10,09,307,33,15,47,036,30,23,46,329,38,1*69

$GPGSV,5,2,19,24,76,140,24,32,04,255,20,02,12,319,,12,05,151,,1*63

$GPGSV,5,3,19,13,18,049,,14,,,,18,61,260,,20,04,122,,1*54

$GPGSV,5,4,19,22,01,056,,29,03,206,,38,,,34,39,,,34,1*62

$GPGSV,5,5,19,41,,,47,42,,,44,50,,,45,1*68

$GPGGA,031605.00,3013.543300,N,12015.554197,E,1,04,1.1,253.5,M,7.0,M,,*53

$GPVTG,147.7,T,152.1,M,0.0,N,0.0,K,A*21

$GPRMC,031605.00,A,3013.543300,N,12015.554197,E,0.0,147.7,180925,4.4,W,A,V*52

$GPGSA,A,3,05,15,18,24,,,,,,,,,1.4,1.1,0.9,1*2D

$GPGSV,5,1,19,05,23,108,31,10,09,307,32,15,47,036,32,22,01,056,25,1*6C

$GPGSV,5,2,19,23,46,329,38,24,76,140,25,32,04,255,20,02,12,319,,1*61

$GPGSV,5,3,19,12,05,151,,13,18,049,,14,,,,18,61,260,,1*50

$GPGSV,5,4,19,20,04,122,,29,03,206,,38,,,34,39,,,34,1*67

$GPGSV,5,5,19,41,,,47,42,,,45,50,,,45,1*69

$GPGGA,031606.00,3013.543175,N,12015.553777,E,1,04,1.1,252.9,M,7.0,M,,*52

$GPVTG,147.7,T,152.1,M,0.0,N,0.0,K,A*21

$GPRMC,031606.00,A,3013.543175,N,12015.553777,E,0.0,147.7,180925,4.4,W,A,V*5E

$GPGSA,A,3,05,15,18,24,,,,,,,,,1.4,1.1,0.9,1*2D

$GPGSV,5,1,19,05,23,108,32,10,09,307,31,15,47,036,30,23,46,329,37,1*64

$GPGSV,5,2,19,24,76,140,26,32,04,255,19,02,12,319,,12,05,151,,1*6B

$GPGSV,5,3,19,13,18,049,,14,,,,18,61,260,,20,04,122,,1*54

$GPGSV,5,4,19,22,01,056,,29,03,206,,38,,,34,39,,,34,1*62

$GPGSV,5,5,19,41,,,47,42,,,45,50,,,45,1*69

$GPGGA,031607.00,3013.543124,N,12015.553588,E,1,04,1.1,252.5,M,7.0,M,,*59

$GPVTG,147.7,T,152.1,M,0.0,N,0.0,K,A*21

$GPRMC,031607.00,A,3013.543124,N,12015.553588,E,0.0,147.7,180925,4.4,W,A,V*59

$GPGSA,A,3,05,15,18,24,,,,,,,,,1.4,1.1,0.9,1*2D

$GPGSV,5,1,19,05,23,108,33,10,09,307,32,15,47,036,30,23,46,329,35,1*64

$GPGSV,5,2,19,24,76,140,26,32,04,255,19,02,12,319,,12,05,151,,1*6B

$GPGSV,5,3,19,13,18,049,,14,,,,18,61,260,,20,04,122,,1*54

$GPGSV,5,4,19,22,01,056,,29,03,206,,38,,,34,39,,,34,1*62

$GPGSV,5,5,19,41,,,47,42,,,45,50,,,45,1*69

$GPGGA,031608.00,3013.543006,N,12015.553221,E,1,04,1.1,252.0,M,7.0,M,,*56

$GPVTG,147.7,T,152.1,M,0.0,N,0.0,K,A*21

$GPRMC,031608.00,A,3013.543006,N,12015.553221,E,0.0,147.7,180925,4.4,W,A,V*53

$GPGSA,A,3,05,15,18,24,,,,,,,,,1.4,1.1,0.9,1*2D

$GPGSV,5,1,18,05,23,108,34,10,09,307,32,15,47,036,31,23,46,329,35,1*63

$GPGSV,5,2,18,24,76,140,26,32,04,255,19,02,12,319,,12,05,151,,1*6A

$GPGSV,5,3,18,13,18,049,,18,61,260,,20,04,122,,22,01,056,,1*62

$GPGSV,5,4,18,29,03,206,,38,,,34,39,,,34,41,,,47,1*57

$GPGSV,5,5,18,42,,,45,50,,,45,1*6E

$GPGGA,031609.00,3013.542948,N,12015.553098,E,1,03,1.1,251.8,M,7.0,M,,*59

$GPVTG,147.7,T,152.1,M,0.0,N,0.0,K,A*21

$GPRMC,031609.00,A,3013.542948,N,12015.553098,E,0.0,147.7,180925,4.4,W,A,V*50

$GPGSA,A,3,05,15,24,,,,,,,,,,1.4,1.1,0.9,1*24

$GPGSV,5,1,20,05,23,108,34,10,09,307,31,15,47,036,31,23,46,329,32,1*6C

$GPGSV,5,2,20,24,76,140,26,32,04,255,19,02,12,319,,12,05,151,,1*61

$GPGSV,5,3,20,13,18,049,,14,,,,18,61,260,,20,04,122,,1*5E

$GPGSV,5,4,20,22,01,056,,29,03,206,,38,,,34,39,,,34,1*68

$GPGSV,5,5,20,40,,,35,41,,,47,42,,,45,50,,,45,1*61

$GPGGA,031610.00,3013.542832,N,12015.552833,E,1,04,1.0,251.2,M,7.0,M,,*59

$GPVTG,147.7,T,152.1,M,0.0,N,0.0,K,A*21

$GPRMC,031610.00,A,3013.542832,N,12015.552833,E,0.0,147.7,180925,4.4,W,A,V*5C

$GPGSA,A,3,05,15,23,24,,,,,,,,,1.4,1.0,0.9,1*24

$GPGSV,6,1,21,05,23,108,35,10,09,307,31,15,47,036,29,23,46,329,31,1*65

$GPGSV,6,2,21,24,76,140,26,32,04,255,19,02,12,319,,12,05,151,,1*63

$GPGSV,6,3,21,13,18,049,,14,,,,18,61,260,,20,04,122,,1*5C

$GPGSV,6,4,21,22,01,056,,29,03,206,,38,,,34,39,,,34,1*6A

$GPGSV,6,5,21,40,,,35,41,,,47,42,,,45,48,,,35,1*6D

$GPGSV,6,6,21,50,,,45,1*63

$GPGGA,031611.00,3013.542752,N,12015.552688,E,1,04,1.0,250.9,M,7.0,M,,*55

$GPVTG,147.7,T,152.1,M,0.0,N,0.0,K,A*21

$GPRMC,031611.00,A,3013.542752,N,12015.552688,E,0.0,147.7,180925,4.4,W,A,V*5A

$GPGSA,A,3,05,15,23,24,,,,,,,,,1.4,1.0,0.9,1*24

$GPGSV,6,1,21,05,23,108,35,10,09,307,30,15,47,036,27,23,46,329,29,1*63

$GPGSV,6,2,21,24,76,140,28,32,04,255,19,02,12,319,,12,05,151,,1*6D

$GPGSV,6,3,21,13,18,049,,14,,,,18,61,260,,20,04,122,,1*5C

$GPGSV,6,4,21,22,01,056,,29,03,206,,38,,,34,39,,,34,1*6A

$GPGSV,6,5,21,40,,,35,41,,,47,42,,,45,48,,,35,1*6D

$GPGSV,6,6,21,50,,,45,1*63

$GPGGA,031612.00,3013.542629,N,12015.552449,E,1,04,1.0,250.5,M,7.0,M,,*58

$GPVTG,147.7,T,152.1,M,0.0,N,0.0,K,A*21

$GPRMC,031612.00,A,3013.542629,N,12015.552449,E,0.0,147.7,180925,4.4,W,A,V*5B

$GPGSA,A,3,05,15,23,24,,,,,,,,,1.4,1.0,0.9,1*24

$GPGSV,5,1,20,05,23,108,35,10,09,307,30,15,47,036,26,23,46,329,28,1*61

$GPGSV,5,2,20,24,76,140,26,32,04,255,19,02,12,319,,12,05,151,,1*61

$GPGSV,5,3,20,13,17,049,,18,61,260,,20,04,122,,22,01,056,,1*66

$GPGSV,5,4,20,29,03,206,,38,,,34,39,,,34,40,,,35,1*58

$GPGSV,5,5,20,41,,,48,42,,,45,48,,,35,50,,,46,1*65

$GPGGA,031613.00,3013.542554,N,12015.552317,E,1,04,1.0,250.3,M,7.0,M,,*5A

$GPVTG,147.7,T,152.1,M,0.0,N,0.0,K,A*21

$GPRMC,031613.00,A,3013.542554,N,12015.552317,E,0.0,147.7,180925,4.4,W,A,V*5F

$GPGSA,A,3,05,15,23,24,,,,,,,,,1.3,1.0,0.9,1*23

$GPGSV,6,1,21,05,23,108,35,10,09,307,30,15,47,036,26,24,76,140,26,1*64

$GPGSV,6,2,21,32,04,255,19,02,12,319,,12,05,151,,13,17,049,,1*6C

$GPGSV,6,3,21,14,,,,18,61,260,,20,04,122,,22,01,056,,1*58

$GPGSV,6,4,21,23,46,329,,29,03,206,,38,,,34,39,,,34,1*63

$GPGSV,6,5,21,40,,,35,41,,,48,42,,,45,48,,,35,1*62

$GPGSV,6,6,21,50,,,45,1*63

$GPGGA,031614.00,3013.542452,N,12015.552129,E,1,03,1.1,250.1,M,7.0,M,,*51

$GPVTG,147.7,T,152.1,M,0.0,N,0.0,K,A*21

$GPRMC,031614.00,A,3013.542452,N,12015.552129,E,0.0,147.7,180925,4.4,W,A,V*50

$GPGSA,A,3,15,23,24,,,,,,,,,,1.4,1.1,0.9,1*20

$GPGSV,6,1,21,05,23,108,34,10,09,307,29,15,47,036,26,24,76,140,25,1*6E

$GPGSV,6,2,21,32,04,255,19,02,12,319,,12,05,151,,13,17,049,,1*6C

$GPGSV,6,3,21,14,,,,18,61,260,,20,04,122,,22,01,056,,1*58

$GPGSV,6,4,21,23,46,329,,29,03,206,,38,,,34,39,,,34,1*63

$GPGSV,6,5,21,40,,,35,41,,,47,42,,,45,48,,,35,1*6D

$GPGSV,6,6,21,50,,,45,1*63

$GPGGA,031615.00,3013.542383,N,12015.552020,E,1,04,1.0,249.9,M,7.0,M,,*55

$GPVTG,147.7,T,152.1,M,0.0,N,0.0,K,A*21

$GPRMC,031615.00,A,3013.542383,N,12015.552020,E,0.0,147.7,180925,4.4,W,A,V*52

$GPGSA,A,3,05,15,23,24,,,,,,,,,1.3,1.0,0.9,1*23

$GPGSV,5,1,20,05,23,108,35,10,09,307,29,15,47,036,23,24,76,140,24,1*69

$GPGSV,5,2,20,32,04,255,19,12,05,151,,13,17,049,,14,,,,1*51

$GPGSV,5,3,20,18,61,260,,20,04,122,,22,01,056,,23,46,329,,1*64

$GPGSV,5,4,20,29,03,206,,38,,,34,39,,,34,40,,,35,1*58

$GPGSV,5,5,20,41,,,47,42,,,45,48,,,35,50,,,46,1*6A

$GPGGA,031616.00,3013.542292,N,12015.551862,E,1,04,1.0,249.7,M,7.0,M,,*54

$GPVTG,147.7,T,152.1,M,0.0,N,0.0,K,A*21

$GPRMC,031616.00,A,3013.542292,N,12015.551862,E,0.0,147.7,180925,4.4,W,A,V*5D

$GPGSA,A,3,05,15,23,24,,,,,,,,,1.3,1.0,0.8,1*22

$GPGSV,6,1,21,05,23,108,35,10,09,307,29,15,47,036,29,24,76,140,25,1*60

$GPGSV,6,2,21,32,04,255,22,02,12,319,,12,05,151,,13,17,049,,1*64

$GPGSV,6,3,21,14,,,,18,61,260,,20,04,122,,22,01,056,,1*58

$GPGSV,6,4,21,23,46,329,,29,03,206,,38,,,34,39,,,34,1*63

$GPGSV,6,5,21,40,,,35,41,,,48,42,,,45,48,,,35,1*62

$GPGSV,6,6,21,50,,,45,1*63

$GPGGA,031617.00,3013.542251,N,12015.551804,E,1,04,1.0,249.7,M,7.0,M,,*5A

$GPVTG,147.7,T,152.1,M,0.0,N,0.0,K,A*21

$GPRMC,031617.00,A,3013.542251,N,12015.551804,E,0.0,147.7,180925,4.4,W,A,V*53

$GPGSA,A,3,05,15,23,24,,,,,,,,,1.3,1.0,0.8,1*22

$GPGSV,5,1,20,05,23,108,35,12,05,151,18,15,47,036,31,23,46,329,30,1*6B

$GPGSV,5,2,20,24,76,140,25,32,04,255,22,02,12,319,,10,09,307,,1*65

$GPGSV,5,3,20,13,17,049,,14,,,,18,61,260,,20,04,122,,1*51

$GPGSV,5,4,20,29,03,206,,38,,,34,39,,,34,40,,,35,1*58

$GPGSV,5,5,20,41,,,47,42,,,45,48,,,35,50,,,45,1*69

$GPGGA,031618.00,3013.542188,N,12015.551687,E,1,04,1.0,249.6,M,7.0,M,,*56

$GPVTG,147.7,T,152.1,M,0.0,N,0.0,K,A*21

$GPRMC,031618.00,A,3013.542188,N,12015.551687,E,0.0,147.7,180925,4.4,W,A,V*5E

$GPGSA,A,3,05,15,23,24,,,,,,,,,1.3,1.0,0.8,1*22

$GPGSV,5,1,20,05,23,108,34,10,09,307,29,12,05,151,18,15,47,036,30,1*64

$GPGSV,5,2,20,24,76,140,24,32,04,255,20,02,12,319,,13,17,049,,1*63

$GPGSV,5,3,20,14,,,,18,61,260,,20,04,122,,22,01,056,,1*5A

$GPGSV,5,4,20,23,46,329,,29,03,206,,39,,,34,40,,,35,1*6F

$GPGSV,5,5,20,41,,,48,42,,,45,48,,,35,50,,,45,1*66

$GPGGA,031619.00,3013.542161,N,12015.551628,E,1,04,1.0,249.5,M,7.0,M,,*56

$GPVTG,147.7,T,152.1,M,0.0,N,0.0,K,A*21

$GPRMC,031619.00,A,3013.542161,N,12015.551628,E,0.0,147.7,180925,4.4,W,A,V*5D

$GPGSA,A,3,05,15,23,24,,,,,,,,,1.3,1.0,0.8,1*22

$GPGSV,5,1,20,05,23,108,34,10,09,307,31,12,05,151,18,15,47,036,32,1*6F

$GPGSV,5,2,20,18,61,260,28,23,46,329,28,24,76,140,26,32,04,255,20,1*63

$GPGSV,5,3,20,02,12,319,,13,17,049,,14,,,,20,04,122,,1*51

$GPGSV,5,4,20,22,01,056,,29,03,206,,39,,,34,40,,,35,1*66

$GPGSV,5,5,20,41,,,48,42,,,45,48,,,35,50,,,45,1*66

$GPGGA,031620.00,3013.542139,N,12015.551578,E,1,05,0.9,249.6,M,7.0,M,,*5D

$GPVTG,147.7,T,152.1,M,0.0,N,0.0,K,A*21

$GPRMC,031620.00,A,3013.542139,N,12015.551578,E,0.0,147.7,180925,4.4,W,A,V*5C

$GPGSA,A,3,05,15,18,23,24,,,,,,,,1.3,0.9,0.8,1*23

$GPGSV,5,1,20,05,23,108,34,10,09,307,31,12,05,151,17,15,47,036,33,1*61

$GPGSV,5,2,20,23,46,329,29,24,76,140,23,32,04,255,20,02,12,319,,1*6D

$GPGSV,5,3,20,13,17,049,,14,,,,18,61,260,,20,04,122,,1*51

$GPGSV,5,4,20,22,01,056,,29,03,206,,39,,,34,40,,,35,1*66

$GPGSV,5,5,20,41,,,48,42,,,45,48,,,35,50,,,45,1*66

$GPGGA,031621.00,3013.542109,N,12015.551551,E,1,04,1.0,249.7,M,7.0,M,,*5C

$GPVTG,147.7,T,152.1,M,0.0,N,0.0,K,A*21

$GPRMC,031621.00,A,3013.542109,N,12015.551551,E,0.0,147.7,180925,4.4,W,A,V*55

$GPGSA,A,3,15,18,23,24,,,,,,,,,1.4,1.0,0.9,1*28

$GPGSV,5,1,20,05,23,108,34,10,09,307,31,12,05,151,17,15,47,036,33,1*61

$GPGSV,5,2,20,23,46,329,30,24,76,140,25,02,12,319,,13,17,049,,1*6F

$GPGSV,5,3,20,14,,,,18,61,260,,20,04,122,,22,01,056,,1*5A

$GPGSV,5,4,20,29,03,206,,32,04,255,,39,,,34,40,,,35,1*63

$GPGSV,5,5,20,41,,,47,42,,,44,48,,,35,50,,,45,1*68

$GPGGA,031622.00,3013.542072,N,12015.551498,E,1,04,1.0,249.8,M,7.0,M,,*59

$GPVTG,147.7,T,152.1,M,0.0,N,0.0,K,A*21

$GPRMC,031622.00,A,3013.542072,N,12015.551498,E,0.0,147.7,180925,4.4,W,A,V*5F

$GPGSA,A,3,15,18,23,24,,,,,,,,,1.4,1.0,0.9,1*28

$GPGSV,5,1,18,05,23,108,33,10,09,307,31,12,05,151,16,15,47,036,34,1*6B

$GPGSV,5,2,18,18,61,260,35,23,46,329,34,24,76,140,25,32,04,255,26,1*6C

$GPGSV,5,3,18,02,12,319,,13,17,049,,22,01,056,,29,03,206,,1*66

$GPGSV,5,4,18,39,,,34,40,,,35,41,,,48,42,,,44,1*6C

$GPGSV,5,5,18,48,,,35,50,,,44,1*62

$GPGGA,031623.00,3013.542031,N,12015.551482,E,1,05,1.0,249.9,M,7.0,M,,*54

$GPVTG,147.7,T,152.1,M,0.0,N,0.0,K,A*21

$GPRMC,031623.00,A,3013.542031,N,12015.551482,E,0.0,147.7,180925,4.4,W,A,V*52

$GPGSA,A,3,05,15,18,23,24,,,,,,,,1.3,1.0,0.8,1*2B

$GPGSV,5,1,20,05,23,108,33,10,09,307,30,12,05,151,17,15,47,036,35,1*61

$GPGSV,5,2,20,18,61,260,34,23,46,329,35,24,76,140,25,32,04,255,25,1*64

$GPGSV,5,3,20,02,12,319,,13,17,049,,14,,,,20,04,122,,1*51

$GPGSV,5,4,20,22,01,056,,29,03,206,,39,,,34,40,,,35,1*66

$GPGSV,5,5,20,41,,,47,42,,,44,48,,,35,50,,,44,1*69

$GPGGA,031624.00,3013.541989,N,12015.551420,E,1,05,1.0,250.1,M,7.0,M,,*52

$GPVTG,147.7,T,152.1,M,0.0,N,0.0,K,A*21

$GPRMC,031624.00,A,3013.541989,N,12015.551420,E,0.0,147.7,180925,4.4,W,A,V*54

$GPGSA,A,3,05,15,18,23,24,,,,,,,,1.3,1.0,0.8,1*2B

